<?xml version="1.0" encoding="UTF-8"?>
<gpx
  version="1.0"
  creator="GPSBabel - http://www.gpsbabel.org"
  xmlns:xsi="http://www.w3.org/2001/XMLSchema-instance"
  xmlns="http://www.topografix.com/GPX/1/0"
  xsi:schemaLocation="http://www.topografix.com/GPX/1/0 http://www.topografix.com/GPX/1/0/gpx.xsd">
<time>2014-03-23T17:07:57Z</time>
<bounds minlat="48.806380010" minlon="2.222189236" maxlat="48.915198642" maxlon="2.479464269"/>
<wpt lat="48.864527821" lon="2.416170724">
  <name>31705 - CHAMPEAUX (BAGNOLET)</name>
  <cmt>31705 - CHAMPEAUX (BAGNOLET)</cmt>
  <desc>31705 - CHAMPEAUX (BAGNOLET)</desc>
</wpt>
<wpt lat="48.872420063" lon="2.348395236">
  <name>10042 - POISSONNI$$RE - ENGHIEN</name>
  <cmt>10042 - POISSONNI$$RE - ENGHIEN</cmt>
  <desc>10042 - POISSONNI$$RE - ENGHIEN</desc>
</wpt>
<wpt lat="48.882148946" lon="2.319860055">
  <name>08020 - METRO ROME</name>
  <cmt>08020 - METRO ROME</cmt>
  <desc>08020 - METRO ROME</desc>
</wpt>
<wpt lat="48.868217017" lon="2.330493511">
  <name>01022 - RUE DE LA PAIX</name>
  <cmt>01022 - RUE DE LA PAIX</cmt>
  <desc>01022 - RUE DE LA PAIX</desc>
</wpt>
<wpt lat="48.893268665" lon="2.412715733">
  <name>35014 - DE GAULLE (PANTIN)</name>
  <cmt>35014 - DE GAULLE (PANTIN)</cmt>
  <desc>35014 - DE GAULLE (PANTIN)</desc>
</wpt>
<wpt lat="48.870393672" lon="2.384222473">
  <name>20040 - PARC DE BELLEVILLE</name>
  <cmt>20040 - PARC DE BELLEVILLE</cmt>
  <desc>20040 - PARC DE BELLEVILLE</desc>
</wpt>
<wpt lat="48.884478000" lon="2.247720650">
  <name>28002 - SOLJENITSYNE (PUTEAUX)</name>
  <cmt>28002 - SOLJENITSYNE (PUTEAUX)</cmt>
  <desc>28002 - SOLJENITSYNE (PUTEAUX)</desc>
</wpt>
<wpt lat="48.834658863" lon="2.295789480">
  <name>15111 - SERRES</name>
  <cmt>15111 - SERRES</cmt>
  <desc>15111 - SERRES</desc>
</wpt>
<wpt lat="48.839041146" lon="2.437655339">
  <name>12124 - PYRAMIDE ARTILLERIE</name>
  <cmt>12124 - PYRAMIDE ARTILLERIE</cmt>
  <desc>12124 - PYRAMIDE ARTILLERIE</desc>
</wpt>
<wpt lat="48.877872278" lon="2.337446804">
  <name>09021 - SAINT GEORGES</name>
  <cmt>09021 - SAINT GEORGES</cmt>
  <desc>09021 - SAINT GEORGES</desc>
</wpt>
<wpt lat="48.859710104" lon="2.325809025">
  <name>07007 - MUS$$E D&apos;ORSAY</name>
  <cmt>07007 - MUS$$E D&apos;ORSAY</cmt>
  <desc>07007 - MUS$$E D&apos;ORSAY</desc>
</wpt>
<wpt lat="48.855501354" lon="2.405168521">
  <name>20011 - PYR$$N$$ES-DAGORNO</name>
  <cmt>20011 - PYR$$N$$ES-DAGORNO</cmt>
  <desc>20011 - PYR$$N$$ES-DAGORNO</desc>
</wpt>
<wpt lat="48.910143671" lon="2.385052018">
  <name>33006 - KARMAN (AUBERVILLIERS)</name>
  <cmt>33006 - KARMAN (AUBERVILLIERS)</cmt>
  <desc>33006 - KARMAN (AUBERVILLIERS)</desc>
</wpt>
<wpt lat="48.844730256" lon="2.341923945">
  <name>05005 - SAINT JACQUES GAY LUSSAC</name>
  <cmt>05005 - SAINT JACQUES GAY LUSSAC</cmt>
  <desc>05005 - SAINT JACQUES GAY LUSSAC</desc>
</wpt>
<wpt lat="48.866617659" lon="2.383013440">
  <name>11029 - MENILMONTANT OBERKAMPF</name>
  <cmt>11029 - MENILMONTANT OBERKAMPF</cmt>
  <desc>11029 - MENILMONTANT OBERKAMPF</desc>
</wpt>
<wpt lat="48.860088326" lon="2.350148336">
  <name>04020 - BEAUBOURG PLACE MICHELET</name>
  <cmt>04020 - BEAUBOURG PLACE MICHELET</cmt>
  <desc>04020 - BEAUBOURG PLACE MICHELET</desc>
</wpt>
<wpt lat="48.854268334" lon="2.319454010">
  <name>07012 - CITE VANEAU</name>
  <cmt>07012 - CITE VANEAU</cmt>
  <desc>07012 - CITE VANEAU</desc>
</wpt>
<wpt lat="48.886389635" lon="2.393637514">
  <name>19019 - PETIT HONNEGER</name>
  <cmt>19019 - PETIT HONNEGER</cmt>
  <desc>19019 - PETIT HONNEGER</desc>
</wpt>
<wpt lat="48.835128865" lon="2.341578635">
  <name>14113 - ARAGO 2</name>
  <cmt>14113 - ARAGO 2</cmt>
  <desc>14113 - ARAGO 2</desc>
</wpt>
<wpt lat="48.851396721" lon="2.291889313">
  <name>15028 - DUPLEIX</name>
  <cmt>15028 - DUPLEIX</cmt>
  <desc>15028 - DUPLEIX</desc>
</wpt>
<wpt lat="48.884298929" lon="2.260991772">
  <name>22005 - DE GAULLE 3 (NEUILLY)</name>
  <cmt>22005 - DE GAULLE 3 (NEUILLY)</cmt>
  <desc>22005 - DE GAULLE 3 (NEUILLY)</desc>
</wpt>
<wpt lat="48.869154361" lon="2.409322469">
  <name>20027 - PORTE DE MENILMONTANT</name>
  <cmt>20027 - PORTE DE MENILMONTANT</cmt>
  <desc>20027 - PORTE DE MENILMONTANT</desc>
</wpt>
<wpt lat="48.882728091" lon="2.336262639">
  <name>18042 - PIGALLE GERMAIN PILLON</name>
  <cmt>18042 - PIGALLE GERMAIN PILLON</cmt>
  <desc>18042 - PIGALLE GERMAIN PILLON</desc>
</wpt>
<wpt lat="48.850379754" lon="2.383869335">
  <name>11008 - FAIDHERBE CHALIGNY</name>
  <cmt>11008 - FAIDHERBE CHALIGNY</cmt>
  <desc>11008 - FAIDHERBE CHALIGNY</desc>
</wpt>
<wpt lat="48.875550395" lon="2.389038161">
  <name>19038 - JOURDAIN</name>
  <cmt>19038 - JOURDAIN</cmt>
  <desc>19038 - JOURDAIN</desc>
</wpt>
<wpt lat="48.824695995" lon="2.363106074">
  <name>13037 - IVRY BAUDICOURT</name>
  <cmt>13037 - IVRY BAUDICOURT</cmt>
  <desc>13037 - IVRY BAUDICOURT</desc>
</wpt>
<wpt lat="48.819941966" lon="2.365078586">
  <name>13040 - PORTE DE CHOISY</name>
  <cmt>13040 - PORTE DE CHOISY</cmt>
  <desc>13040 - PORTE DE CHOISY</desc>
</wpt>
<wpt lat="48.852861249" lon="2.268483571">
  <name>16027 - JASMIN</name>
  <cmt>16027 - JASMIN</cmt>
  <desc>16027 - JASMIN</desc>
</wpt>
<wpt lat="48.843198828" lon="2.322257377">
  <name>15118 - PLACE BIENVENUE</name>
  <cmt>15118 - PLACE BIENVENUE</cmt>
  <desc>15118 - PLACE BIENVENUE</desc>
</wpt>
<wpt lat="48.844799289" lon="2.329337756">
  <name>06006 - NOTRE DAME DES CHAMPS</name>
  <cmt>06006 - NOTRE DAME DES CHAMPS</cmt>
  <desc>06006 - NOTRE DAME DES CHAMPS</desc>
</wpt>
<wpt lat="48.857143392" lon="2.398472000">
  <name>20015 - BAGNOLET-ORTEAUX</name>
  <cmt>20015 - BAGNOLET-ORTEAUX</cmt>
  <desc>20015 - BAGNOLET-ORTEAUX</desc>
</wpt>
<wpt lat="48.882633484" lon="2.344884406">
  <name>09005 - SQUARE D&apos;ANVERS</name>
  <cmt>09005 - SQUARE D&apos;ANVERS</cmt>
  <desc>09005 - SQUARE D&apos;ANVERS</desc>
</wpt>
<wpt lat="48.869708848" lon="2.310714655">
  <name>08031 - ROND POINT DES CHAMPS ELYSEES</name>
  <cmt>08031 - ROND POINT DES CHAMPS ELYSEES</cmt>
  <desc>08031 - ROND POINT DES CHAMPS ELYSEES</desc>
</wpt>
<wpt lat="48.846964360" lon="2.399868277">
  <name>12015 - NATION PICPUS</name>
  <cmt>12015 - NATION PICPUS</cmt>
  <desc>12015 - NATION PICPUS</desc>
</wpt>
<wpt lat="48.879831225" lon="2.345396339">
  <name>09007 - CONDORCET</name>
  <cmt>09007 - CONDORCET</cmt>
  <desc>09007 - CONDORCET</desc>
</wpt>
<wpt lat="48.881149034" lon="2.336681004">
  <name>09019 - VICTOR MASSE</name>
  <cmt>09019 - VICTOR MASSE</cmt>
  <desc>09019 - VICTOR MASSE</desc>
</wpt>
<wpt lat="48.834117148" lon="2.308850015">
  <name>15040 - MONCLAR</name>
  <cmt>15040 - MONCLAR</cmt>
  <desc>15040 - MONCLAR</desc>
</wpt>
<wpt lat="48.821227663" lon="2.342104215">
  <name>14013 - LIART AMIRAL MOUCHEZ</name>
  <cmt>14013 - LIART AMIRAL MOUCHEZ</cmt>
  <desc>14013 - LIART AMIRAL MOUCHEZ</desc>
</wpt>
<wpt lat="48.823963252" lon="2.399998420">
  <name>42201 - NECKER (CHARENTON)</name>
  <cmt>42201 - NECKER (CHARENTON)</cmt>
  <desc>42201 - NECKER (CHARENTON)</desc>
</wpt>
<wpt lat="48.865745077" lon="2.365312951">
  <name>11038 - TEMPLE REPUBLIQUE</name>
  <cmt>11038 - TEMPLE REPUBLIQUE</cmt>
  <desc>11038 - TEMPLE REPUBLIQUE</desc>
</wpt>
<wpt lat="48.891877957" lon="2.335447428">
  <name>18019 - MONTCALM</name>
  <cmt>18019 - MONTCALM</cmt>
  <desc>18019 - MONTCALM</desc>
</wpt>
<wpt lat="48.898773793" lon="2.322478478">
  <name>17008 - PORCHE POUCHET</name>
  <cmt>17008 - PORCHE POUCHET</cmt>
  <desc>17008 - PORCHE POUCHET</desc>
</wpt>
<wpt lat="48.861380000" lon="2.324420000">
  <name>00901 - PORT SOLF$$RINO (STATION MOBILE)</name>
  <cmt>00901 - PORT SOLF$$RINO (STATION MOBILE)</cmt>
  <desc>00901 - PORT SOLF$$RINO (STATION MOBILE)</desc>
</wpt>
<wpt lat="48.846294918" lon="2.278413913">
  <name>15064 - JAVEL</name>
  <cmt>15064 - JAVEL</cmt>
  <desc>15064 - JAVEL</desc>
</wpt>
<wpt lat="48.835138051" lon="2.385478487">
  <name>12031 - LAME</name>
  <cmt>12031 - LAME</cmt>
  <desc>12031 - LAME</desc>
</wpt>
<wpt lat="48.826035166" lon="2.342176808">
  <name>13021 - BOUSSINGAULT - TOLBIAC</name>
  <cmt>13021 - BOUSSINGAULT - TOLBIAC</cmt>
  <desc>13021 - BOUSSINGAULT - TOLBIAC</desc>
</wpt>
<wpt lat="48.902592242" lon="2.330513565">
  <name>34002 - PERI (SAINT OUEN)</name>
  <cmt>34002 - PERI (SAINT OUEN)</cmt>
  <desc>34002 - PERI (SAINT OUEN)</desc>
</wpt>
<wpt lat="48.865021946" lon="2.345068440">
  <name>02005 - MONTORGUEIL RUE MONTMARTRE VERSION 2</name>
  <cmt>02005 - MONTORGUEIL RUE MONTMARTRE VERSION 2</cmt>
  <desc>02005 - MONTORGUEIL RUE MONTMARTRE VERSION 2</desc>
</wpt>
<wpt lat="48.882749915" lon="2.277406381">
  <name>22012 - MICHELIS (NEUILLY)</name>
  <cmt>22012 - MICHELIS (NEUILLY)</cmt>
  <desc>22012 - MICHELIS (NEUILLY)</desc>
</wpt>
<wpt lat="48.841916180" lon="2.358912681">
  <name>05104 - BUFFON</name>
  <cmt>05104 - BUFFON</cmt>
  <desc>05104 - BUFFON</desc>
</wpt>
<wpt lat="48.857702134" lon="2.437368661">
  <name>31008 - VINCENNES (MONTREUIL)</name>
  <cmt>31008 - VINCENNES (MONTREUIL)</cmt>
  <desc>31008 - VINCENNES (MONTREUIL)</desc>
</wpt>
<wpt lat="48.842144332" lon="2.285862656">
  <name>15062 - BOUCICAUT</name>
  <cmt>15062 - BOUCICAUT</cmt>
  <desc>15062 - BOUCICAUT</desc>
</wpt>
<wpt lat="48.855796637" lon="2.357907882">
  <name>04012 - ECOUFFES RIVOLI</name>
  <cmt>04012 - ECOUFFES RIVOLI</cmt>
  <desc>04012 - ECOUFFES RIVOLI</desc>
</wpt>
<wpt lat="48.865584191" lon="2.356278448">
  <name>03011 - TURBIGO</name>
  <cmt>03011 - TURBIGO</cmt>
  <desc>03011 - TURBIGO</desc>
</wpt>
<wpt lat="48.856974940" lon="2.408842457">
  <name>20017 - RUE SAINT BLAISE</name>
  <cmt>20017 - RUE SAINT BLAISE</cmt>
  <desc>20017 - RUE SAINT BLAISE</desc>
</wpt>
<wpt lat="48.894057251" lon="2.332199336">
  <name>18028 - VAUVENARGUES</name>
  <cmt>18028 - VAUVENARGUES</cmt>
  <desc>18028 - VAUVENARGUES</desc>
</wpt>
<wpt lat="48.839760000" lon="2.382410000">
  <name>12024 - GARE DE BERCY</name>
  <cmt>12024 - GARE DE BERCY</cmt>
  <desc>12024 - GARE DE BERCY</desc>
</wpt>
<wpt lat="48.866516080" lon="2.369322530">
  <name>11113 - REPUBLIQUE FERRY</name>
  <cmt>11113 - REPUBLIQUE FERRY</cmt>
  <desc>11113 - REPUBLIQUE FERRY</desc>
</wpt>
<wpt lat="48.827600424" lon="2.241835191">
  <name>21015 - NATIONALE (BOULOGNE-BILLANCOURT)</name>
  <cmt>21015 - NATIONALE (BOULOGNE-BILLANCOURT)</cmt>
  <desc>21015 - NATIONALE (BOULOGNE-BILLANCOURT)</desc>
</wpt>
<wpt lat="48.818002270" lon="2.372432376">
  <name>42015 - PAUL BERT (IVRY)</name>
  <cmt>42015 - PAUL BERT (IVRY)</cmt>
  <desc>42015 - PAUL BERT (IVRY)</desc>
</wpt>
<wpt lat="48.850310433" lon="2.345015835">
  <name>05002 - SAINT JACQUES</name>
  <cmt>05002 - SAINT JACQUES</cmt>
  <desc>05002 - SAINT JACQUES</desc>
</wpt>
<wpt lat="48.872778156" lon="2.376348395">
  <name>10040 - BELLEVILLE</name>
  <cmt>10040 - BELLEVILLE</cmt>
  <desc>10040 - BELLEVILLE</desc>
</wpt>
<wpt lat="48.834848453" lon="2.366826500">
  <name>13018 - AURIOL CHEVALERET</name>
  <cmt>13018 - AURIOL CHEVALERET</cmt>
  <desc>13018 - AURIOL CHEVALERET</desc>
</wpt>
<wpt lat="48.823316172" lon="2.354336944">
  <name>13026 - PLACE HENOCQUE VERSION 2</name>
  <cmt>13026 - PLACE HENOCQUE VERSION 2</cmt>
  <desc>13026 - PLACE HENOCQUE VERSION 2</desc>
</wpt>
<wpt lat="48.876468340" lon="2.392284630">
  <name>19028 - PLACE DES FETES</name>
  <cmt>19028 - PLACE DES FETES</cmt>
  <desc>19028 - PLACE DES FETES</desc>
</wpt>
<wpt lat="48.870764982" lon="2.358724462">
  <name>10008 - CITE RIVERIN</name>
  <cmt>10008 - CITE RIVERIN</cmt>
  <desc>10008 - CITE RIVERIN</desc>
</wpt>
<wpt lat="48.853751073" lon="2.339113723">
  <name>06015 - MAZET SAINT ANDRE DES ARTS</name>
  <cmt>06015 - MAZET SAINT ANDRE DES ARTS</cmt>
  <desc>06015 - MAZET SAINT ANDRE DES ARTS</desc>
</wpt>
<wpt lat="48.841486856" lon="2.430793451">
  <name>43006 - MINIMES (VINCENNES)</name>
  <cmt>43006 - MINIMES (VINCENNES)</cmt>
  <desc>43006 - MINIMES (VINCENNES)</desc>
</wpt>
<wpt lat="48.837970342" lon="2.287582307">
  <name>15054 - CHANDON</name>
  <cmt>15054 - CHANDON</cmt>
  <desc>15054 - CHANDON</desc>
</wpt>
<wpt lat="48.862650300" lon="2.367053490">
  <name>11043 - CIRQUE D HIVER</name>
  <cmt>11043 - CIRQUE D HIVER</cmt>
  <desc>11043 - CIRQUE D HIVER</desc>
</wpt>
<wpt lat="48.842735043" lon="2.352472437">
  <name>05024 - PLACE MONGE</name>
  <cmt>05024 - PLACE MONGE</cmt>
  <desc>05024 - PLACE MONGE</desc>
</wpt>
<wpt lat="48.843076387" lon="2.295141413">
  <name>15036 - LAMBERT</name>
  <cmt>15036 - LAMBERT</cmt>
  <desc>15036 - LAMBERT</desc>
</wpt>
<wpt lat="48.814440180" lon="2.341070654">
  <name>42504 - MALON (GENTILLY)</name>
  <cmt>42504 - MALON (GENTILLY)</cmt>
  <desc>42504 - MALON (GENTILLY)</desc>
</wpt>
<wpt lat="48.850241087" lon="2.327551549">
  <name>06107 - CHERCHE MIDI</name>
  <cmt>06107 - CHERCHE MIDI</cmt>
  <desc>06107 - CHERCHE MIDI</desc>
</wpt>
<wpt lat="48.881411101" lon="2.294828201">
  <name>17029 - PLACE AIM$$E MAILLART</name>
  <cmt>17029 - PLACE AIM$$E MAILLART</cmt>
  <desc>17029 - PLACE AIM$$E MAILLART</desc>
</wpt>
<wpt lat="48.828369894" lon="2.384440355">
  <name>13050 - QUAI PANHARD ET LEVASSOR</name>
  <cmt>13050 - QUAI PANHARD ET LEVASSOR</cmt>
  <desc>13050 - QUAI PANHARD ET LEVASSOR</desc>
</wpt>
<wpt lat="48.879505266" lon="2.337190639">
  <name>09020 - TOUDOUZE CLAUZEL</name>
  <cmt>09020 - TOUDOUZE CLAUZEL</cmt>
  <desc>09020 - TOUDOUZE CLAUZEL</desc>
</wpt>
<wpt lat="48.834259250" lon="2.313391647">
  <name>14029 - GERGOVIE VERCINGETORIX</name>
  <cmt>14029 - GERGOVIE VERCINGETORIX</cmt>
  <desc>14029 - GERGOVIE VERCINGETORIX</desc>
</wpt>
<wpt lat="48.880726686" lon="2.351464333">
  <name>10029 - PLACE DE ROUBAIX</name>
  <cmt>10029 - PLACE DE ROUBAIX</cmt>
  <desc>10029 - PLACE DE ROUBAIX</desc>
</wpt>
<wpt lat="48.882911090" lon="2.346319372">
  <name>09004 - ROCHECHOUART GERANDO</name>
  <cmt>09004 - ROCHECHOUART GERANDO</cmt>
  <desc>09004 - ROCHECHOUART GERANDO</desc>
</wpt>
<wpt lat="48.874112917" lon="2.362498529">
  <name>10015 - RECOLLETS</name>
  <cmt>10015 - RECOLLETS</cmt>
  <desc>10015 - RECOLLETS</desc>
</wpt>
<wpt lat="48.848922958" lon="2.341040509">
  <name>06029 - VAUGIRARD PRINCE</name>
  <cmt>06029 - VAUGIRARD PRINCE</cmt>
  <desc>06029 - VAUGIRARD PRINCE</desc>
</wpt>
<wpt lat="48.845515090" lon="2.372649845">
  <name>12151 - GARE DE LYON</name>
  <cmt>12151 - GARE DE LYON</cmt>
  <desc>12151 - GARE DE LYON</desc>
</wpt>
<wpt lat="48.842577101" lon="2.397249991">
  <name>12019 - GARE DE REUILLY</name>
  <cmt>12019 - GARE DE REUILLY</cmt>
  <desc>12019 - GARE DE REUILLY</desc>
</wpt>
<wpt lat="48.820226793" lon="2.372209310">
  <name>13116 - PLACE DU DOCTEUR YERSIN</name>
  <cmt>13116 - PLACE DU DOCTEUR YERSIN</cmt>
  <desc>13116 - PLACE DU DOCTEUR YERSIN</desc>
</wpt>
<wpt lat="48.879275196" lon="2.378637022">
  <name>19114 - MANIN SECRETAN</name>
  <cmt>19114 - MANIN SECRETAN</cmt>
  <desc>19114 - MANIN SECRETAN</desc>
</wpt>
<wpt lat="48.873760472" lon="2.315876308">
  <name>08025 - MIROMESNIL</name>
  <cmt>08025 - MIROMESNIL</cmt>
  <desc>08025 - MIROMESNIL</desc>
</wpt>
<wpt lat="48.899410682" lon="2.345920133">
  <name>18036 - FRANCIS DE CROISSET</name>
  <cmt>18036 - FRANCIS DE CROISSET</cmt>
  <desc>18036 - FRANCIS DE CROISSET</desc>
</wpt>
<wpt lat="48.835680444" lon="2.328290822">
  <name>14033 - DAGUERRE GASSENDI</name>
  <cmt>14033 - DAGUERRE GASSENDI</cmt>
  <desc>14033 - DAGUERRE GASSENDI</desc>
</wpt>
<wpt lat="48.879441370" lon="2.278535717">
  <name>22011 - MONTROSIER (NEUILLY)</name>
  <cmt>22011 - MONTROSIER (NEUILLY)</cmt>
  <desc>22011 - MONTROSIER (NEUILLY)</desc>
</wpt>
<wpt lat="48.835545044" lon="2.407455516">
  <name>12032 - PORTE DOREE</name>
  <cmt>12032 - PORTE DOREE</cmt>
  <desc>12032 - PORTE DOREE</desc>
</wpt>
<wpt lat="48.860998366" lon="2.273128527">
  <name>16110 - OCTAVE FEUILLET</name>
  <cmt>16110 - OCTAVE FEUILLET</cmt>
  <desc>16110 - OCTAVE FEUILLET</desc>
</wpt>
<wpt lat="48.847665710" lon="2.273556265">
  <name>16030 - MIRABEAU</name>
  <cmt>16030 - MIRABEAU</cmt>
  <desc>16030 - MIRABEAU</desc>
</wpt>
<wpt lat="48.832179444" lon="2.287122262">
  <name>15049 - PORTE DE VERSAILLES</name>
  <cmt>15049 - PORTE DE VERSAILLES</cmt>
  <desc>15049 - PORTE DE VERSAILLES</desc>
</wpt>
<wpt lat="48.833733830" lon="2.271396472">
  <name>15042 - FARMAN</name>
  <cmt>15042 - FARMAN</cmt>
  <desc>15042 - FARMAN</desc>
</wpt>
<wpt lat="48.882700644" lon="2.374693389">
  <name>19012 - LALLY TOLLENDAL</name>
  <cmt>19012 - LALLY TOLLENDAL</cmt>
  <desc>19012 - LALLY TOLLENDAL</desc>
</wpt>
<wpt lat="48.828243494" lon="2.250657740">
  <name>21018 - SEINE (BOULOGNE-BILLANCOURT)</name>
  <cmt>21018 - SEINE (BOULOGNE-BILLANCOURT)</cmt>
  <desc>21018 - SEINE (BOULOGNE-BILLANCOURT)</desc>
</wpt>
<wpt lat="48.839222098" lon="2.291540508">
  <name>15053 - LECOURBE</name>
  <cmt>15053 - LECOURBE</cmt>
  <desc>15053 - LECOURBE</desc>
</wpt>
<wpt lat="48.893400393" lon="2.336266524">
  <name>18027 - DAMREMONT ORDENER</name>
  <cmt>18027 - DAMREMONT ORDENER</cmt>
  <desc>18027 - DAMREMONT ORDENER</desc>
</wpt>
<wpt lat="48.850297010" lon="2.330446820">
  <name>06103 - MEZIERES RENNES</name>
  <cmt>06103 - MEZIERES RENNES</cmt>
  <desc>06103 - MEZIERES RENNES</desc>
</wpt>
<wpt lat="48.816929721" lon="2.381460319">
  <name>42006 - BROSSOLETTE (IVRY)</name>
  <cmt>42006 - BROSSOLETTE (IVRY)</cmt>
  <desc>42006 - BROSSOLETTE (IVRY)</desc>
</wpt>
<wpt lat="48.894151383" lon="2.314678001">
  <name>17011 - PORTE DE CLICHY FRAGONARD</name>
  <cmt>17011 - PORTE DE CLICHY FRAGONARD</cmt>
  <desc>17011 - PORTE DE CLICHY FRAGONARD</desc>
</wpt>
<wpt lat="48.852930411" lon="2.342657393">
  <name>06020 - SAINT MICHEL DANTON</name>
  <cmt>06020 - SAINT MICHEL DANTON</cmt>
  <desc>06020 - SAINT MICHEL DANTON</desc>
</wpt>
<wpt lat="48.854176040" lon="2.396093495">
  <name>11017 - ALEXANDRE DUMAS</name>
  <cmt>11017 - ALEXANDRE DUMAS</cmt>
  <desc>11017 - ALEXANDRE DUMAS</desc>
</wpt>
<wpt lat="48.837549292" lon="2.335983030">
  <name>14111 - DENFERT-ROCHEREAU CASSINI</name>
  <cmt>14111 - DENFERT-ROCHEREAU CASSINI</cmt>
  <desc>14111 - DENFERT-ROCHEREAU CASSINI</desc>
</wpt>
<wpt lat="48.867937963" lon="2.377885516">
  <name>11032 - METALLOS</name>
  <cmt>11032 - METALLOS</cmt>
  <desc>11032 - METALLOS</desc>
</wpt>
<wpt lat="48.899348354" lon="2.296626483">
  <name>21113 - PETIT (CLICHY)</name>
  <cmt>21113 - PETIT (CLICHY)</cmt>
  <desc>21113 - PETIT (CLICHY)</desc>
</wpt>
<wpt lat="48.863431990" lon="2.371208618">
  <name>11044 - RICHARD LENOIR VOLTAIRE NORD</name>
  <cmt>11044 - RICHARD LENOIR VOLTAIRE NORD</cmt>
  <desc>11044 - RICHARD LENOIR VOLTAIRE NORD</desc>
</wpt>
<wpt lat="48.858044057" lon="2.367832659">
  <name>03001 - CHEMIN VERT BEAUMARCHAIS</name>
  <cmt>03001 - CHEMIN VERT BEAUMARCHAIS</cmt>
  <desc>03001 - CHEMIN VERT BEAUMARCHAIS</desc>
</wpt>
<wpt lat="48.853528686" lon="2.409615363">
  <name>20133 - RASSELINS</name>
  <cmt>20133 - RASSELINS</cmt>
  <desc>20133 - RASSELINS</desc>
</wpt>
<wpt lat="48.822632842" lon="2.377738434">
  <name>13047 - BOUTROUX VITRY</name>
  <cmt>13047 - BOUTROUX VITRY</cmt>
  <desc>13047 - BOUTROUX VITRY</desc>
</wpt>
<wpt lat="48.905269629" lon="2.322171249">
  <name>34009 - MAAR (SAINT OUEN)</name>
  <cmt>34009 - MAAR (SAINT OUEN)</cmt>
  <desc>34009 - MAAR (SAINT OUEN)</desc>
</wpt>
<wpt lat="48.853848226" lon="2.369701488">
  <name>11001 - BASTILLE RICHARD LENOIR</name>
  <cmt>11001 - BASTILLE RICHARD LENOIR</cmt>
  <desc>11001 - BASTILLE RICHARD LENOIR</desc>
</wpt>
<wpt lat="48.862401212" lon="2.359447032">
  <name>03007 - ARCHIVES PASTOURELLE</name>
  <cmt>03007 - ARCHIVES PASTOURELLE</cmt>
  <desc>03007 - ARCHIVES PASTOURELLE</desc>
</wpt>
<wpt lat="48.876601171" lon="2.345785517">
  <name>09009 - SQUARE MONTHOLON</name>
  <cmt>09009 - SQUARE MONTHOLON</cmt>
  <desc>09009 - SQUARE MONTHOLON</desc>
</wpt>
<wpt lat="48.863140000" lon="2.316690000">
  <name>00905 - CONCORDE/BERGES DE SEINE (STATION MOBILE)</name>
  <cmt>00905 - CONCORDE/BERGES DE SEINE (STATION MOBILE)</cmt>
  <desc>00905 - CONCORDE/BERGES DE SEINE (STATION MOBILE)</desc>
</wpt>
<wpt lat="48.841325260" lon="2.318291552">
  <name>15115 - VAUGIRARD</name>
  <cmt>15115 - VAUGIRARD</cmt>
  <desc>15115 - VAUGIRARD</desc>
</wpt>
<wpt lat="48.848385765" lon="2.350169939">
  <name>05018 - MUTUALITE</name>
  <cmt>05018 - MUTUALITE</cmt>
  <desc>05018 - MUTUALITE</desc>
</wpt>
<wpt lat="48.896331932" lon="2.409087653">
  <name>35006 - DELIZY (PANTIN)</name>
  <cmt>35006 - DELIZY (PANTIN)</cmt>
  <desc>35006 - DELIZY (PANTIN)</desc>
</wpt>
<wpt lat="48.878113788" lon="2.329560219">
  <name>09036 - ATHENES CLICHY</name>
  <cmt>09036 - ATHENES CLICHY</cmt>
  <desc>09036 - ATHENES CLICHY</desc>
</wpt>
<wpt lat="48.855501358" lon="2.368429070">
  <name>04107 - BEAUMARCHAIS</name>
  <cmt>04107 - BEAUMARCHAIS</cmt>
  <desc>04107 - BEAUMARCHAIS</desc>
</wpt>
<wpt lat="48.883103905" lon="2.323834749">
  <name>17050 - BATIGNOLLES</name>
  <cmt>17050 - BATIGNOLLES</cmt>
  <desc>17050 - BATIGNOLLES</desc>
</wpt>
<wpt lat="48.842547950" lon="2.344596650">
  <name>05013 - ULM ERASME</name>
  <cmt>05013 - ULM ERASME</cmt>
  <desc>05013 - ULM ERASME</desc>
</wpt>
<wpt lat="48.875412422" lon="2.405960331">
  <name>20110 - PORTE DES LILAS</name>
  <cmt>20110 - PORTE DES LILAS</cmt>
  <desc>20110 - PORTE DES LILAS</desc>
</wpt>
<wpt lat="48.837727921" lon="2.344664043">
  <name>13001 - PORT ROYAL</name>
  <cmt>13001 - PORT ROYAL</cmt>
  <desc>13001 - PORT ROYAL</desc>
</wpt>
<wpt lat="48.837727687" lon="2.360460336">
  <name>13103 - SAINT MARCEL</name>
  <cmt>13103 - SAINT MARCEL</cmt>
  <desc>13103 - SAINT MARCEL</desc>
</wpt>
<wpt lat="48.881161984" lon="2.309512381">
  <name>17018 - MONCEAU</name>
  <cmt>17018 - MONCEAU</cmt>
  <desc>17018 - MONCEAU</desc>
</wpt>
<wpt lat="48.873929200" lon="2.427933580">
  <name>31704 - HORNET (BAGNOLET)</name>
  <cmt>31704 - HORNET (BAGNOLET)</cmt>
  <desc>31704 - HORNET (BAGNOLET)</desc>
</wpt>
<wpt lat="48.857203788" lon="2.353976274">
  <name>04103 - HOTEL DE VILLE</name>
  <cmt>04103 - HOTEL DE VILLE</cmt>
  <desc>04103 - HOTEL DE VILLE</desc>
</wpt>
<wpt lat="48.825846935" lon="2.248821391">
  <name>21013 - GRENIER (BOULOGNE-BILLANCOURT)</name>
  <cmt>21013 - GRENIER (BOULOGNE-BILLANCOURT)</cmt>
  <desc>21013 - GRENIER (BOULOGNE-BILLANCOURT)</desc>
</wpt>
<wpt lat="48.850507012" lon="2.393075558">
  <name>11012 - MONTREUIL VOLTAIRE</name>
  <cmt>11012 - MONTREUIL VOLTAIRE</cmt>
  <desc>11012 - MONTREUIL VOLTAIRE</desc>
</wpt>
<wpt lat="48.915156183" lon="2.376424010">
  <name>33012 - LANDY (AUBERVILLIERS)</name>
  <cmt>33012 - LANDY (AUBERVILLIERS)</cmt>
  <desc>33012 - LANDY (AUBERVILLIERS)</desc>
</wpt>
<wpt lat="48.910137095" lon="2.399325633">
  <name>35001 - JAURES 1 (PANTIN)</name>
  <cmt>35001 - JAURES 1 (PANTIN)</cmt>
  <desc>35001 - JAURES 1 (PANTIN)</desc>
</wpt>
<wpt lat="48.821049923" lon="2.291300631">
  <name>21703 - MARTINIE (VANVES)</name>
  <cmt>21703 - MARTINIE (VANVES)</cmt>
  <desc>21703 - MARTINIE (VANVES)</desc>
</wpt>
<wpt lat="48.866067150" lon="2.345463653">
  <name>02101 - BACHAUMONT</name>
  <cmt>02101 - BACHAUMONT</cmt>
  <desc>02101 - BACHAUMONT</desc>
</wpt>
<wpt lat="48.879430376" lon="2.303467407">
  <name>17025 - COURCELLES</name>
  <cmt>17025 - COURCELLES</cmt>
  <desc>17025 - COURCELLES</desc>
</wpt>
<wpt lat="48.853261669" lon="2.326319806">
  <name>07004 - RASPAIL VARENNE</name>
  <cmt>07004 - RASPAIL VARENNE</cmt>
  <desc>07004 - RASPAIL VARENNE</desc>
</wpt>
<wpt lat="48.866295106" lon="2.389350412">
  <name>20032 - AMANDIERS</name>
  <cmt>20032 - AMANDIERS</cmt>
  <desc>20032 - AMANDIERS</desc>
</wpt>
<wpt lat="48.879161778" lon="2.343698431">
  <name>09008 - TOUR D&apos;AUVERGNE</name>
  <cmt>09008 - TOUR D&apos;AUVERGNE</cmt>
  <desc>09008 - TOUR D&apos;AUVERGNE</desc>
</wpt>
<wpt lat="48.848257753" lon="2.439892899">
  <name>43007 - VORGES (VINCENNES)</name>
  <cmt>43007 - VORGES (VINCENNES)</cmt>
  <desc>43007 - VORGES (VINCENNES)</desc>
</wpt>
<wpt lat="48.844192408" lon="2.371691678">
  <name>12006 - GARE DE LYON VAN GOGH</name>
  <cmt>12006 - GARE DE LYON VAN GOGH</cmt>
  <desc>12006 - GARE DE LYON VAN GOGH</desc>
</wpt>
<wpt lat="48.815388220" lon="2.320886791">
  <name>21204 - D&apos;ORVES (MONTROUGE)</name>
  <cmt>21204 - D&apos;ORVES (MONTROUGE)</cmt>
  <desc>21204 - D&apos;ORVES (MONTROUGE)</desc>
</wpt>
<wpt lat="48.824767103" lon="2.335999677">
  <name>14016 - REILLE MONTSOURIS</name>
  <cmt>14016 - REILLE MONTSOURIS</cmt>
  <desc>14016 - REILLE MONTSOURIS</desc>
</wpt>
<wpt lat="48.852814191" lon="2.419307089">
  <name>31002 - REPUBLIQUE (MONTREUIL)</name>
  <cmt>31002 - REPUBLIQUE (MONTREUIL)</cmt>
  <desc>31002 - REPUBLIQUE (MONTREUIL)</desc>
</wpt>
<wpt lat="48.838633872" lon="2.278274193">
  <name>15070 - BLANC</name>
  <cmt>15070 - BLANC</cmt>
  <desc>15070 - BLANC</desc>
</wpt>
<wpt lat="48.883769733" lon="2.298584663">
  <name>17047 - COURCELLES - DEMOURES</name>
  <cmt>17047 - COURCELLES - DEMOURES</cmt>
  <desc>17047 - COURCELLES - DEMOURES</desc>
</wpt>
<wpt lat="48.890747210" lon="2.330820396">
  <name>18018 - CARPEAUX</name>
  <cmt>18018 - CARPEAUX</cmt>
  <desc>18018 - CARPEAUX</desc>
</wpt>
<wpt lat="48.859402720" lon="2.355927487">
  <name>04014 - ARCHIVES BLANCS MANTEAUX</name>
  <cmt>04014 - ARCHIVES BLANCS MANTEAUX</cmt>
  <desc>04014 - ARCHIVES BLANCS MANTEAUX</desc>
</wpt>
<wpt lat="48.852766744" lon="2.297876431">
  <name>15105 - SUFFREN F$$D$$RATION</name>
  <cmt>15105 - SUFFREN F$$D$$RATION</cmt>
  <desc>15105 - SUFFREN F$$D$$RATION</desc>
</wpt>
<wpt lat="48.871825890" lon="2.372203225">
  <name>10024 - BUISSON SAINT LOUIS</name>
  <cmt>10024 - BUISSON SAINT LOUIS</cmt>
  <desc>10024 - BUISSON SAINT LOUIS</desc>
</wpt>
<wpt lat="48.905745468" lon="2.364997877">
  <name>32008 - EMGP NORD (SAINT DENIS)</name>
  <cmt>32008 - EMGP NORD (SAINT DENIS)</cmt>
  <desc>32008 - EMGP NORD (SAINT DENIS)</desc>
</wpt>
<wpt lat="48.876140398" lon="2.301303138">
  <name>08054 - HOCHE ALBRECHT</name>
  <cmt>08054 - HOCHE ALBRECHT</cmt>
  <desc>08054 - HOCHE ALBRECHT</desc>
</wpt>
<wpt lat="48.861373891" lon="2.320131277">
  <name>07009 - ASSEMBLEE NATIONALE</name>
  <cmt>07009 - ASSEMBLEE NATIONALE</cmt>
  <desc>07009 - ASSEMBLEE NATIONALE</desc>
</wpt>
<wpt lat="48.863979655" lon="2.335599604">
  <name>01015 - PLACE ANDRE MALRAUX</name>
  <cmt>01015 - PLACE ANDRE MALRAUX</cmt>
  <desc>01015 - PLACE ANDRE MALRAUX</desc>
</wpt>
<wpt lat="48.887901346" lon="2.324400445">
  <name>17002 - LA FOURCHE RUE DE LA CONDAMINE</name>
  <cmt>17002 - LA FOURCHE RUE DE LA CONDAMINE</cmt>
  <desc>17002 - LA FOURCHE RUE DE LA CONDAMINE</desc>
</wpt>
<wpt lat="48.893734278" lon="2.347517967">
  <name>18030 - SIMPLON</name>
  <cmt>18030 - SIMPLON</cmt>
  <desc>18030 - SIMPLON</desc>
</wpt>
<wpt lat="48.882173094" lon="2.423272636">
  <name>32605 - HORTENSIAS (LES LILAS)</name>
  <cmt>32605 - HORTENSIAS (LES LILAS)</cmt>
  <desc>32605 - HORTENSIAS (LES LILAS)</desc>
</wpt>
<wpt lat="48.847550436" lon="2.433432608">
  <name>43005 - AUBERT (VINCENNES)</name>
  <cmt>43005 - AUBERT (VINCENNES)</cmt>
  <desc>43005 - AUBERT (VINCENNES)</desc>
</wpt>
<wpt lat="48.827838033" lon="2.370530564">
  <name>13045 - TOLBIAC ALBERT</name>
  <cmt>13045 - TOLBIAC ALBERT</cmt>
  <desc>13045 - TOLBIAC ALBERT</desc>
</wpt>
<wpt lat="48.874810390" lon="2.308314064">
  <name>08034 - HAUSSMANN COURCELLES</name>
  <cmt>08034 - HAUSSMANN COURCELLES</cmt>
  <desc>08034 - HAUSSMANN COURCELLES</desc>
</wpt>
<wpt lat="48.869969734" lon="2.336039456">
  <name>02012 - QUATRE SEPTEMBRE</name>
  <cmt>02012 - QUATRE SEPTEMBRE</cmt>
  <desc>02012 - QUATRE SEPTEMBRE</desc>
</wpt>
<wpt lat="48.840108957" lon="2.337296890">
  <name>05029 - PORT ROYAL</name>
  <cmt>05029 - PORT ROYAL</cmt>
  <desc>05029 - PORT ROYAL</desc>
</wpt>
<wpt lat="48.853246898" lon="2.405871045">
  <name>20008 - MARAICHERS</name>
  <cmt>20008 - MARAICHERS</cmt>
  <desc>20008 - MARAICHERS</desc>
</wpt>
<wpt lat="48.878155298" lon="2.288518048">
  <name>17039 - PLACE SAINT FERDINAND</name>
  <cmt>17039 - PLACE SAINT FERDINAND</cmt>
  <desc>17039 - PLACE SAINT FERDINAND</desc>
</wpt>
<wpt lat="48.837126039" lon="2.351433330">
  <name>05027 - GOBELINS</name>
  <cmt>05027 - GOBELINS</cmt>
  <desc>05027 - GOBELINS</desc>
</wpt>
<wpt lat="48.841249336" lon="2.288386601">
  <name>15069 - BOUCICAUT FAURE</name>
  <cmt>15069 - BOUCICAUT FAURE</cmt>
  <desc>15069 - BOUCICAUT FAURE</desc>
</wpt>
<wpt lat="48.844634626" lon="2.405099826">
  <name>12017 - ST MANDE NETTER</name>
  <cmt>12017 - ST MANDE NETTER</cmt>
  <desc>12017 - ST MANDE NETTER</desc>
</wpt>
<wpt lat="48.902691618" lon="2.393255829">
  <name>35003 - VAILLANT (PANTIN)</name>
  <cmt>35003 - VAILLANT (PANTIN)</cmt>
  <desc>35003 - VAILLANT (PANTIN)</desc>
</wpt>
<wpt lat="48.853868968" lon="2.402426162">
  <name>20116 - HAIES REUNION</name>
  <cmt>20116 - HAIES REUNION</cmt>
  <desc>20116 - HAIES REUNION</desc>
</wpt>
<wpt lat="48.892845711" lon="2.363429016">
  <name>18011 - HERBERT</name>
  <cmt>18011 - HERBERT</cmt>
  <desc>18011 - HERBERT</desc>
</wpt>
<wpt lat="48.835480719" lon="2.348572462">
  <name>13005 - ARAGO CORDELIERE - VERSION 2</name>
  <cmt>13005 - ARAGO CORDELIERE - VERSION 2</cmt>
  <desc>13005 - ARAGO CORDELIERE - VERSION 2</desc>
</wpt>
<wpt lat="48.872859139" lon="2.370071707">
  <name>10032 - DODU</name>
  <cmt>10032 - DODU</cmt>
  <desc>10032 - DODU</desc>
</wpt>
<wpt lat="48.840416188" lon="2.295464907">
  <name>15037 - GROULT</name>
  <cmt>15037 - GROULT</cmt>
  <desc>15037 - GROULT</desc>
</wpt>
<wpt lat="48.900660349" lon="2.308569535">
  <name>21106 - MORICE 2 (CLICHY)</name>
  <cmt>21106 - MORICE 2 (CLICHY)</cmt>
  <desc>21106 - MORICE 2 (CLICHY)</desc>
</wpt>
<wpt lat="48.878188876" lon="2.299296004">
  <name>08055 - TERNES COURCELLES</name>
  <cmt>08055 - TERNES COURCELLES</cmt>
  <desc>08055 - TERNES COURCELLES</desc>
</wpt>
<wpt lat="48.855253361" lon="2.347356448">
  <name>04002 - MARCHE AUX FLEURS</name>
  <cmt>04002 - MARCHE AUX FLEURS</cmt>
  <desc>04002 - MARCHE AUX FLEURS</desc>
</wpt>
<wpt lat="48.848045786" lon="2.284380634">
  <name>15030 - LINOIS</name>
  <cmt>15030 - LINOIS</cmt>
  <desc>15030 - LINOIS</desc>
</wpt>
<wpt lat="48.856317178" lon="2.383072452">
  <name>11020 - CHARONNE</name>
  <cmt>11020 - CHARONNE</cmt>
  <desc>11020 - CHARONNE</desc>
</wpt>
<wpt lat="48.840714364" lon="2.278018572">
  <name>15059 - CITROEN</name>
  <cmt>15059 - CITROEN</cmt>
  <desc>15059 - CITROEN</desc>
</wpt>
<wpt lat="48.870409135" lon="2.301123192">
  <name>08549 - PLACE DUNANT</name>
  <cmt>08549 - PLACE DUNANT</cmt>
  <desc>08549 - PLACE DUNANT</desc>
</wpt>
<wpt lat="48.867565806" lon="2.225998485">
  <name>21501 - SELLIER (SURESNES)</name>
  <cmt>21501 - SELLIER (SURESNES)</cmt>
  <desc>21501 - SELLIER (SURESNES)</desc>
</wpt>
<wpt lat="48.827525292" lon="2.331729379">
  <name>14011 - ALESIA SARRETTE</name>
  <cmt>14011 - ALESIA SARRETTE</cmt>
  <desc>14011 - ALESIA SARRETTE</desc>
</wpt>
<wpt lat="48.869616195" lon="2.306620835">
  <name>08013 - MARIGNAN</name>
  <cmt>08013 - MARIGNAN</cmt>
  <desc>08013 - MARIGNAN</desc>
</wpt>
<wpt lat="48.846338054" lon="2.420247340">
  <name>43001 - PARIS 1 (VINCENNES)</name>
  <cmt>43001 - PARIS 1 (VINCENNES)</cmt>
  <desc>43001 - PARIS 1 (VINCENNES)</desc>
</wpt>
<wpt lat="48.815050006" lon="2.459239415">
  <name>44101 - PLACE MONGOLFIER (SAINT MAURICE)</name>
  <cmt>44101 - PLACE MONGOLFIER (SAINT MAURICE)</cmt>
  <desc>44101 - PLACE MONGOLFIER (SAINT MAURICE)</desc>
</wpt>
<wpt lat="48.863567047" lon="2.347702021">
  <name>01007 - ETIENNE MARCEL</name>
  <cmt>01007 - ETIENNE MARCEL</cmt>
  <desc>01007 - ETIENNE MARCEL</desc>
</wpt>
<wpt lat="48.869517979" lon="2.302426219">
  <name>08105 - FRANCOIS 1ER LINCOLN</name>
  <cmt>08105 - FRANCOIS 1ER LINCOLN</cmt>
  <desc>08105 - FRANCOIS 1ER LINCOLN</desc>
</wpt>
<wpt lat="48.837555260" lon="2.257972573">
  <name>16042 - PORTE DE SAINT CLOUD</name>
  <cmt>16042 - PORTE DE SAINT CLOUD</cmt>
  <desc>16042 - PORTE DE SAINT CLOUD</desc>
</wpt>
<wpt lat="48.890451121" lon="2.349057393">
  <name>18022 - BARBES MARCADET</name>
  <cmt>18022 - BARBES MARCADET</cmt>
  <desc>18022 - BARBES MARCADET</desc>
</wpt>
<wpt lat="48.902492452" lon="2.297840007">
  <name>21101 - VALITON (CLICHY)</name>
  <cmt>21101 - VALITON (CLICHY)</cmt>
  <desc>21101 - VALITON (CLICHY)</desc>
</wpt>
<wpt lat="48.830723215" lon="2.336146557">
  <name>14125 - DAREAU</name>
  <cmt>14125 - DAREAU</cmt>
  <desc>14125 - DAREAU</desc>
</wpt>
<wpt lat="48.823923169" lon="2.316573329">
  <name>14115 - CIT$$ UNIVERSITAIRE</name>
  <cmt>14115 - CIT$$ UNIVERSITAIRE</cmt>
  <desc>14115 - CIT$$ UNIVERSITAIRE</desc>
</wpt>
<wpt lat="48.888961619" lon="2.322528975">
  <name>17004 - LEGENDRE AVENUE DE CLICHY</name>
  <cmt>17004 - LEGENDRE AVENUE DE CLICHY</cmt>
  <desc>17004 - LEGENDRE AVENUE DE CLICHY</desc>
</wpt>
<wpt lat="48.895914118" lon="2.322727367">
  <name>17007 - NAVIER</name>
  <cmt>17007 - NAVIER</cmt>
  <desc>17007 - NAVIER</desc>
</wpt>
<wpt lat="48.891834448" lon="2.300144660">
  <name>17116 - REIMS</name>
  <cmt>17116 - REIMS</cmt>
  <desc>17116 - REIMS</desc>
</wpt>
<wpt lat="48.874179024" lon="2.327778690">
  <name>9104 - CAUMARTIN PROVENCE</name>
  <cmt>9104 - CAUMARTIN PROVENCE</cmt>
  <desc>9104 - CAUMARTIN PROVENCE</desc>
</wpt>
<wpt lat="48.875353174" lon="2.322884366">
  <name>08008 - ROME SAINT LAZARE</name>
  <cmt>08008 - ROME SAINT LAZARE</cmt>
  <desc>08008 - ROME SAINT LAZARE</desc>
</wpt>
<wpt lat="48.856954148" lon="2.362897420">
  <name>03013 - RUE DE SEVIGNE</name>
  <cmt>03013 - RUE DE SEVIGNE</cmt>
  <desc>03013 - RUE DE SEVIGNE</desc>
</wpt>
<wpt lat="48.828602891" lon="2.353034583">
  <name>13023 - BOBILLOT VERLAINE</name>
  <cmt>13023 - BOBILLOT VERLAINE</cmt>
  <desc>13023 - BOBILLOT VERLAINE</desc>
</wpt>
<wpt lat="48.847790664" lon="2.444690888">
  <name>43008 - FONTENAY (VINCENNES)</name>
  <cmt>43008 - FONTENAY (VINCENNES)</cmt>
  <desc>43008 - FONTENAY (VINCENNES)</desc>
</wpt>
<wpt lat="48.857129400" lon="2.404425625">
  <name>20016 - PYRENEES VITRUVE</name>
  <cmt>20016 - PYRENEES VITRUVE</cmt>
  <desc>20016 - PYRENEES VITRUVE</desc>
</wpt>
<wpt lat="48.884163266" lon="2.341879802">
  <name>18005 - TARDIEU</name>
  <cmt>18005 - TARDIEU</cmt>
  <desc>18005 - TARDIEU</desc>
</wpt>
<wpt lat="48.825325870" lon="2.310670653">
  <name>14106 - STADE DIDOT</name>
  <cmt>14106 - STADE DIDOT</cmt>
  <desc>14106 - STADE DIDOT</desc>
</wpt>
<wpt lat="48.873338225" lon="2.413239880">
  <name>20120 - NOISY LE SEC</name>
  <cmt>20120 - NOISY LE SEC</cmt>
  <desc>20120 - NOISY LE SEC</desc>
</wpt>
<wpt lat="48.833573618" lon="2.285480421">
  <name>15107 -  PALAIS DES SPORTS</name>
  <cmt>15107 -  PALAIS DES SPORTS</cmt>
  <desc>15107 -  PALAIS DES SPORTS</desc>
</wpt>
<wpt lat="48.843542735" lon="2.306558616">
  <name>15013 - LECOURBE VOLONTAIRE</name>
  <cmt>15013 - LECOURBE VOLONTAIRE</cmt>
  <desc>15013 - LECOURBE VOLONTAIRE</desc>
</wpt>
<wpt lat="48.883620234" lon="2.403240318">
  <name>33104 - JOINEAU (PRE SAINT GERVAIS)</name>
  <cmt>33104 - JOINEAU (PRE SAINT GERVAIS)</cmt>
  <desc>33104 - JOINEAU (PRE SAINT GERVAIS)</desc>
</wpt>
<wpt lat="48.852725972" lon="2.360878343">
  <name>04009 - VILLAGE SAINT PAUL</name>
  <cmt>04009 - VILLAGE SAINT PAUL</cmt>
  <desc>04009 - VILLAGE SAINT PAUL</desc>
</wpt>
<wpt lat="48.847950208" lon="2.260659826">
  <name>16034 - PORTE D&apos;AUTEUIL</name>
  <cmt>16034 - PORTE D&apos;AUTEUIL</cmt>
  <desc>16034 - PORTE D&apos;AUTEUIL</desc>
</wpt>
<wpt lat="48.876859327" lon="2.332762380">
  <name>09029 - TRINITE</name>
  <cmt>09029 - TRINITE</cmt>
  <desc>09029 - TRINITE</desc>
</wpt>
<wpt lat="48.827564380" lon="2.349063507">
  <name>13022 - BUTTE AUX CAILLES</name>
  <cmt>13022 - BUTTE AUX CAILLES</cmt>
  <desc>13022 - BUTTE AUX CAILLES</desc>
</wpt>
<wpt lat="48.858621669" lon="2.409942554">
  <name>20018 - HARPIGNIES</name>
  <cmt>20018 - HARPIGNIES</cmt>
  <desc>20018 - HARPIGNIES</desc>
</wpt>
<wpt lat="48.868165941" lon="2.301274609">
  <name>08047 - GEORGE V</name>
  <cmt>08047 - GEORGE V</cmt>
  <desc>08047 - GEORGE V</desc>
</wpt>
<wpt lat="48.907885757" lon="2.378838474">
  <name>33009 - FELIX (AUBERVILLIERS)</name>
  <cmt>33009 - FELIX (AUBERVILLIERS)</cmt>
  <desc>33009 - FELIX (AUBERVILLIERS)</desc>
</wpt>
<wpt lat="48.896181268" lon="2.318020679">
  <name>17108 - BESSIERES</name>
  <cmt>17108 - BESSIERES</cmt>
  <desc>17108 - BESSIERES</desc>
</wpt>
<wpt lat="48.864649420" lon="2.369261438">
  <name>11042 - OBERKAMPF</name>
  <cmt>11042 - OBERKAMPF</cmt>
  <desc>11042 - OBERKAMPF</desc>
</wpt>
<wpt lat="48.825099329" lon="2.292500331">
  <name>21707 - PASTEUR (VANVES)</name>
  <cmt>21707 - PASTEUR (VANVES)</cmt>
  <desc>21707 - PASTEUR (VANVES)</desc>
</wpt>
<wpt lat="48.833179771" lon="2.299282642">
  <name>15047 - DANTZIG</name>
  <cmt>15047 - DANTZIG</cmt>
  <desc>15047 - DANTZIG</desc>
</wpt>
<wpt lat="48.824952873" lon="2.388580679">
  <name>13121 - IVRY BRUNESEAU</name>
  <cmt>13121 - IVRY BRUNESEAU</cmt>
  <desc>13121 - IVRY BRUNESEAU</desc>
</wpt>
<wpt lat="48.847769857" lon="2.316183887">
  <name>07001 - DUROC</name>
  <cmt>07001 - DUROC</cmt>
  <desc>07001 - DUROC</desc>
</wpt>
<wpt lat="48.836058394" lon="2.301865968">
  <name>15039 - CHARLES VALLIN</name>
  <cmt>15039 - CHARLES VALLIN</cmt>
  <desc>15039 - CHARLES VALLIN</desc>
</wpt>
<wpt lat="48.857615679" lon="2.335831353">
  <name>06001 - INSTITUT</name>
  <cmt>06001 - INSTITUT</cmt>
  <desc>06001 - INSTITUT</desc>
</wpt>
<wpt lat="48.866331348" lon="2.371097448">
  <name>11109 - REPUBLIQUE PIERRE LEVEE</name>
  <cmt>11109 - REPUBLIQUE PIERRE LEVEE</cmt>
  <desc>11109 - REPUBLIQUE PIERRE LEVEE</desc>
</wpt>
<wpt lat="48.830887175" lon="2.318882101">
  <name>14027 - ALESIA GERGOVIE</name>
  <cmt>14027 - ALESIA GERGOVIE</cmt>
  <desc>14027 - ALESIA GERGOVIE</desc>
</wpt>
<wpt lat="48.871361040" lon="2.288866396">
  <name>16104 - PAUL VAL$$RY</name>
  <cmt>16104 - PAUL VAL$$RY</cmt>
  <desc>16104 - PAUL VAL$$RY</desc>
</wpt>
<wpt lat="48.854963800" lon="2.387217085">
  <name>11111 - CHARONNE FROT</name>
  <cmt>11111 - CHARONNE FROT</cmt>
  <desc>11111 - CHARONNE FROT</desc>
</wpt>
<wpt lat="48.889496305" lon="2.333393659">
  <name>18111 - FELIZ ZIEM</name>
  <cmt>18111 - FELIZ ZIEM</cmt>
  <desc>18111 - FELIZ ZIEM</desc>
</wpt>
<wpt lat="48.822340966" lon="2.327861653">
  <name>14108 - JOURDAN LE BRIX ET MESNIN</name>
  <cmt>14108 - JOURDAN LE BRIX ET MESNIN</cmt>
  <desc>14108 - JOURDAN LE BRIX ET MESNIN</desc>
</wpt>
<wpt lat="48.875457200" lon="2.315465495">
  <name>08026 - MESSINE</name>
  <cmt>08026 - MESSINE</cmt>
  <desc>08026 - MESSINE</desc>
</wpt>
<wpt lat="48.879223371" lon="2.349147494">
  <name>09002 - MAUBEUGE CONDORCET</name>
  <cmt>09002 - MAUBEUGE CONDORCET</cmt>
  <desc>09002 - MAUBEUGE CONDORCET</desc>
</wpt>
<wpt lat="48.855603162" lon="2.390546391">
  <name>11019 - CHARONNE PHILIPPE AUGUSTE</name>
  <cmt>11019 - CHARONNE PHILIPPE AUGUSTE</cmt>
  <desc>11019 - CHARONNE PHILIPPE AUGUSTE</desc>
</wpt>
<wpt lat="48.877124178" lon="2.374276509">
  <name>19118 - BOLIVAR BURNOUF</name>
  <cmt>19118 - BOLIVAR BURNOUF</cmt>
  <desc>19118 - BOLIVAR BURNOUF</desc>
</wpt>
<wpt lat="48.846295032" lon="2.352222922">
  <name>05022 - CARDINAL LEMOINE</name>
  <cmt>05022 - CARDINAL LEMOINE</cmt>
  <desc>05022 - CARDINAL LEMOINE</desc>
</wpt>
<wpt lat="48.872083609" lon="2.357663686">
  <name>10009 - HITTORFF</name>
  <cmt>10009 - HITTORFF</cmt>
  <desc>10009 - HITTORFF</desc>
</wpt>
<wpt lat="48.839988789" lon="2.400525669">
  <name>12038 - BEL AIR</name>
  <cmt>12038 - BEL AIR</cmt>
  <desc>12038 - BEL AIR</desc>
</wpt>
<wpt lat="48.834390797" lon="2.329303947">
  <name>14036 - BOULARD DAGUERRE</name>
  <cmt>14036 - BOULARD DAGUERRE</cmt>
  <desc>14036 - BOULARD DAGUERRE</desc>
</wpt>
<wpt lat="48.890329989" lon="2.319730560">
  <name>17005 - BROCHANT</name>
  <cmt>17005 - BROCHANT</cmt>
  <desc>17005 - BROCHANT</desc>
</wpt>
<wpt lat="48.863025315" lon="2.268806550">
  <name>16019 - HENRI MARTIN</name>
  <cmt>16019 - HENRI MARTIN</cmt>
  <desc>16019 - HENRI MARTIN</desc>
</wpt>
<wpt lat="48.892656892" lon="2.359435455">
  <name>18104 - CHAPELLE</name>
  <cmt>18104 - CHAPELLE</cmt>
  <desc>18104 - CHAPELLE</desc>
</wpt>
<wpt lat="48.829875373" lon="2.354246535">
  <name>13106 - BOBILLOT MERY</name>
  <cmt>13106 - BOBILLOT MERY</cmt>
  <desc>13106 - BOBILLOT MERY</desc>
</wpt>
<wpt lat="48.840649299" lon="2.227978775">
  <name>21007 - RHIN DANUBE (BOULOGNE BILLANCOURT)</name>
  <cmt>21007 - RHIN DANUBE (BOULOGNE BILLANCOURT)</cmt>
  <desc>21007 - RHIN DANUBE (BOULOGNE BILLANCOURT)</desc>
</wpt>
<wpt lat="48.873462799" lon="2.364035059">
  <name>10111 - BOURSE DU TRAVAIL</name>
  <cmt>10111 - BOURSE DU TRAVAIL</cmt>
  <desc>10111 - BOURSE DU TRAVAIL</desc>
</wpt>
<wpt lat="48.892719666" lon="2.412529571">
  <name>35008 - LOLIVE 2 (PANTIN)</name>
  <cmt>35008 - LOLIVE 2 (PANTIN)</cmt>
  <desc>35008 - LOLIVE 2 (PANTIN)</desc>
</wpt>
<wpt lat="48.881447321" lon="2.373404767">
  <name>19022 - BOLIVAR</name>
  <cmt>19022 - BOLIVAR</cmt>
  <desc>19022 - BOLIVAR</desc>
</wpt>
<wpt lat="48.886233417" lon="2.368856390">
  <name>19109 - PLACE DU MAROC</name>
  <cmt>19109 - PLACE DU MAROC</cmt>
  <desc>19109 - PLACE DU MAROC</desc>
</wpt>
<wpt lat="48.868851708" lon="2.298514049">
  <name>08048 - MARCEAU</name>
  <cmt>08048 - MARCEAU</cmt>
  <desc>08048 - MARCEAU</desc>
</wpt>
<wpt lat="48.875329723" lon="2.340772662">
  <name>09014 - FAUBOURG MONTMARTRE</name>
  <cmt>09014 - FAUBOURG MONTMARTRE</cmt>
  <desc>09014 - FAUBOURG MONTMARTRE</desc>
</wpt>
<wpt lat="48.877890015" lon="2.344785603">
  <name>09108 - ROCHECHOUART MAUBEUGE</name>
  <cmt>09108 - ROCHECHOUART MAUBEUGE</cmt>
  <desc>09108 - ROCHECHOUART MAUBEUGE</desc>
</wpt>
<wpt lat="48.829983711" lon="2.350403588">
  <name>13009 - BLANQUI CORVISART</name>
  <cmt>13009 - BLANQUI CORVISART</cmt>
  <desc>13009 - BLANQUI CORVISART</desc>
</wpt>
<wpt lat="48.890678129" lon="2.376142469">
  <name>19006 - MATHIS</name>
  <cmt>19006 - MATHIS</cmt>
  <desc>19006 - MATHIS</desc>
</wpt>
<wpt lat="48.892633921" lon="2.317313258">
  <name>17009 - BODIN AVENUE DE CLICHY</name>
  <cmt>17009 - BODIN AVENUE DE CLICHY</cmt>
  <desc>17009 - BODIN AVENUE DE CLICHY</desc>
</wpt>
<wpt lat="48.843949176" lon="2.379081343">
  <name>12106 - BARTHES TROYES</name>
  <cmt>12106 - BARTHES TROYES</cmt>
  <desc>12106 - BARTHES TROYES</desc>
</wpt>
<wpt lat="48.888790027" lon="2.378500156">
  <name>19125 - LEDIT DE NANTES</name>
  <cmt>19125 - LEDIT DE NANTES</cmt>
  <desc>19125 - LEDIT DE NANTES</desc>
</wpt>
<wpt lat="48.809582338" lon="2.362683510">
  <name>42703 - FONTAINEBLEAU (KREMLIN BICETRE)</name>
  <cmt>42703 - FONTAINEBLEAU (KREMLIN BICETRE)</cmt>
  <desc>42703 - FONTAINEBLEAU (KREMLIN BICETRE)</desc>
</wpt>
<wpt lat="48.873204401" lon="2.323658831">
  <name>08016 - SQUARE LOUIS XVI</name>
  <cmt>08016 - SQUARE LOUIS XVI</cmt>
  <desc>08016 - SQUARE LOUIS XVI</desc>
</wpt>
<wpt lat="48.851454182" lon="2.296710301">
  <name>15025 - AMETTE</name>
  <cmt>15025 - AMETTE</cmt>
  <desc>15025 - AMETTE</desc>
</wpt>
<wpt lat="48.843674845" lon="2.354615983">
  <name>05031 - LACEPEDE</name>
  <cmt>05031 - LACEPEDE</cmt>
  <desc>05031 - LACEPEDE</desc>
</wpt>
<wpt lat="48.843734469" lon="2.333428382">
  <name>06008 - ASSAS LUXEMBOURG</name>
  <cmt>06008 - ASSAS LUXEMBOURG</cmt>
  <desc>06008 - ASSAS LUXEMBOURG</desc>
</wpt>
<wpt lat="48.866810653" lon="2.334388448">
  <name>01116 - OP$$RA PYRAMIDES</name>
  <cmt>01116 - OP$$RA PYRAMIDES</cmt>
  <desc>01116 - OP$$RA PYRAMIDES</desc>
</wpt>
<wpt lat="48.844790390" lon="2.290541560">
  <name>15033 - VIOLET</name>
  <cmt>15033 - VIOLET</cmt>
  <desc>15033 - VIOLET</desc>
</wpt>
<wpt lat="48.885733300" lon="2.397846415">
  <name>19035 - PORTE CHAUMONT</name>
  <cmt>19035 - PORTE CHAUMONT</cmt>
  <desc>19035 - PORTE CHAUMONT</desc>
</wpt>
<wpt lat="48.894104140" lon="2.372946088">
  <name>19001 - OURCQ CRIMEE</name>
  <cmt>19001 - OURCQ CRIMEE</cmt>
  <desc>19001 - OURCQ CRIMEE</desc>
</wpt>
<wpt lat="48.845779219" lon="2.423770595">
  <name>41603 - PASTEUR (SAINT MANDE)</name>
  <cmt>41603 - PASTEUR (SAINT MANDE)</cmt>
  <desc>41603 - PASTEUR (SAINT MANDE)</desc>
</wpt>
<wpt lat="48.882194204" lon="2.340651850">
  <name>18041 - MARTYRS 2</name>
  <cmt>18041 - MARTYRS 2</cmt>
  <desc>18041 - MARTYRS 2</desc>
</wpt>
<wpt lat="48.870136459" lon="2.396690613">
  <name>20119 - SQUARE DE MENILMONTANT</name>
  <cmt>20119 - SQUARE DE MENILMONTANT</cmt>
  <desc>20119 - SQUARE DE MENILMONTANT</desc>
</wpt>
<wpt lat="48.847331053" lon="2.410390008">
  <name>20047 - COURS DE VINCENNES BD DAVOUT</name>
  <cmt>20047 - COURS DE VINCENNES BD DAVOUT</cmt>
  <desc>20047 - COURS DE VINCENNES BD DAVOUT</desc>
</wpt>
<wpt lat="48.853844054" lon="2.289705348">
  <name>15026 - BIR HAKEIM</name>
  <cmt>15026 - BIR HAKEIM</cmt>
  <desc>15026 - BIR HAKEIM</desc>
</wpt>
<wpt lat="48.870782780" lon="2.345905811">
  <name>02022 - BONNE NOUVELLE SAINT FIACRE</name>
  <cmt>02022 - BONNE NOUVELLE SAINT FIACRE</cmt>
  <desc>02022 - BONNE NOUVELLE SAINT FIACRE</desc>
</wpt>
<wpt lat="48.850285281" lon="2.406296108">
  <name>20006 - PYR$$N$$ES - PLAINE</name>
  <cmt>20006 - PYR$$N$$ES - PLAINE</cmt>
  <desc>20006 - PYR$$N$$ES - PLAINE</desc>
</wpt>
<wpt lat="48.838713363" lon="2.252191061">
  <name>16044 - STADE FRANCAIS</name>
  <cmt>16044 - STADE FRANCAIS</cmt>
  <desc>16044 - STADE FRANCAIS</desc>
</wpt>
<wpt lat="48.875538421" lon="2.293732100">
  <name>17033 - CARNOT</name>
  <cmt>17033 - CARNOT</cmt>
  <desc>17033 - CARNOT</desc>
</wpt>
<wpt lat="48.869412891" lon="2.395039981">
  <name>20035 - PYRENEES</name>
  <cmt>20035 - PYRENEES</cmt>
  <desc>20035 - PYRENEES</desc>
</wpt>
<wpt lat="48.884570063" lon="2.360215573">
  <name>18040 - CHAPELLE MARX DORMOY</name>
  <cmt>18040 - CHAPELLE MARX DORMOY</cmt>
  <desc>18040 - CHAPELLE MARX DORMOY</desc>
</wpt>
<wpt lat="48.877356058" lon="2.354511446">
  <name>10021 - MARCHE ST QUENTIN</name>
  <cmt>10021 - MARCHE ST QUENTIN</cmt>
  <desc>10021 - MARCHE ST QUENTIN</desc>
</wpt>
<wpt lat="48.872939768" lon="2.354034484">
  <name>10006 - PETITES ECURIES</name>
  <cmt>10006 - PETITES ECURIES</cmt>
  <desc>10006 - PETITES ECURIES</desc>
</wpt>
<wpt lat="48.892895284" lon="2.340119632">
  <name>18026 - RUISSEAU ORDENER</name>
  <cmt>18026 - RUISSEAU ORDENER</cmt>
  <desc>18026 - RUISSEAU ORDENER</desc>
</wpt>
<wpt lat="48.860116110" lon="2.280840482">
  <name>16016 - PAUL DOUMER / LA TOUR</name>
  <cmt>16016 - PAUL DOUMER / LA TOUR</cmt>
  <desc>16016 - PAUL DOUMER / LA TOUR</desc>
</wpt>
<wpt lat="48.896549060" lon="2.384649644">
  <name>19009 - CITE DES SCIENCES</name>
  <cmt>19009 - CITE DES SCIENCES</cmt>
  <desc>19009 - CITE DES SCIENCES</desc>
</wpt>
<wpt lat="48.875070404" lon="2.382591715">
  <name>19101 - SIMON BOLIVAR</name>
  <cmt>19101 - SIMON BOLIVAR</cmt>
  <desc>19101 - SIMON BOLIVAR</desc>
</wpt>
<wpt lat="48.897922409" lon="2.328514510">
  <name>17044 - PORTE DE SAINT OUEN</name>
  <cmt>17044 - PORTE DE SAINT OUEN</cmt>
  <desc>17044 - PORTE DE SAINT OUEN</desc>
</wpt>
<wpt lat="48.847653881" lon="2.390238633">
  <name>12107 - DIDEROT BOURDAN</name>
  <cmt>12107 - DIDEROT BOURDAN</cmt>
  <desc>12107 - DIDEROT BOURDAN</desc>
</wpt>
<wpt lat="48.851678229" lon="2.314633841">
  <name>07014 - SAINT FRANCOIS XAVIER</name>
  <cmt>07014 - SAINT FRANCOIS XAVIER</cmt>
  <desc>07014 - SAINT FRANCOIS XAVIER</desc>
</wpt>
<wpt lat="48.841156216" lon="2.324448790">
  <name>14001 - EDGAR QUINET</name>
  <cmt>14001 - EDGAR QUINET</cmt>
  <desc>14001 - EDGAR QUINET</desc>
</wpt>
<wpt lat="48.844373194" lon="2.410972452">
  <name>12021 - COURTELINE</name>
  <cmt>12021 - COURTELINE</cmt>
  <desc>12021 - COURTELINE</desc>
</wpt>
<wpt lat="48.861581158" lon="2.356609341">
  <name>03009 - TEMPLE 113</name>
  <cmt>03009 - TEMPLE 113</cmt>
  <desc>03009 - TEMPLE 113</desc>
</wpt>
<wpt lat="48.867070000" lon="2.363510000">
  <name>03004 - REPUBLIQUE 23</name>
  <cmt>03004 - REPUBLIQUE 23</cmt>
  <desc>03004 - REPUBLIQUE 23</desc>
</wpt>
<wpt lat="48.883659211" lon="2.395719508">
  <name>19105 - PORTE BRUNET</name>
  <cmt>19105 - PORTE BRUNET</cmt>
  <desc>19105 - PORTE BRUNET</desc>
</wpt>
<wpt lat="48.887274643" lon="2.332648364">
  <name>18001 - DAMREMONT CAULAINCOURT</name>
  <cmt>18001 - DAMREMONT CAULAINCOURT</cmt>
  <desc>18001 - DAMREMONT CAULAINCOURT</desc>
</wpt>
<wpt lat="48.844728792" lon="2.287141454">
  <name>15108 - MUS$$E DES T$$L$$COMMUNICATIONS</name>
  <cmt>15108 - MUS$$E DES T$$L$$COMMUNICATIONS</cmt>
  <desc>15108 - MUS$$E DES T$$L$$COMMUNICATIONS</desc>
</wpt>
<wpt lat="48.863411107" lon="2.387133958">
  <name>20030 - PERE LACHAISE</name>
  <cmt>20030 - PERE LACHAISE</cmt>
  <desc>20030 - PERE LACHAISE</desc>
</wpt>
<wpt lat="48.867623078" lon="2.333268593">
  <name>02020 - OPERA CASANOVA</name>
  <cmt>02020 - OPERA CASANOVA</cmt>
  <desc>02020 - OPERA CASANOVA</desc>
</wpt>
<wpt lat="48.834250135" lon="2.317614787">
  <name>14104 - LOSSERAND BOYER-BARRET</name>
  <cmt>14104 - LOSSERAND BOYER-BARRET</cmt>
  <desc>14104 - LOSSERAND BOYER-BARRET</desc>
</wpt>
<wpt lat="48.852255290" lon="2.374027236">
  <name>11004 - CHARONNE SAINT ANTOINE</name>
  <cmt>11004 - CHARONNE SAINT ANTOINE</cmt>
  <desc>11004 - CHARONNE SAINT ANTOINE</desc>
</wpt>
<wpt lat="48.857566890" lon="2.280027395">
  <name>16022 - RUE JEAN BOLOGNE</name>
  <cmt>16022 - RUE JEAN BOLOGNE</cmt>
  <desc>16022 - RUE JEAN BOLOGNE</desc>
</wpt>
<wpt lat="48.901773852" lon="2.372628294">
  <name>19106 - GARE EMGP</name>
  <cmt>19106 - GARE EMGP</cmt>
  <desc>19106 - GARE EMGP</desc>
</wpt>
<wpt lat="48.831582644" lon="2.356708421">
  <name>13010 - PLACE D ITALIE AURIOL</name>
  <cmt>13010 - PLACE D ITALIE AURIOL</cmt>
  <desc>13010 - PLACE D ITALIE AURIOL</desc>
</wpt>
<wpt lat="48.885913128" lon="2.293234151">
  <name>17107 - BERTHIER STUART MERRIL</name>
  <cmt>17107 - BERTHIER STUART MERRIL</cmt>
  <desc>17107 - BERTHIER STUART MERRIL</desc>
</wpt>
<wpt lat="48.831121775" lon="2.348108655">
  <name>13101 - CROULEBARBE RECULETTES</name>
  <cmt>13101 - CROULEBARBE RECULETTES</cmt>
  <desc>13101 - CROULEBARBE RECULETTES</desc>
</wpt>
<wpt lat="48.813156678" lon="2.332054795">
  <name>42503 - LENINE (GENTILLY)</name>
  <cmt>42503 - LENINE (GENTILLY)</cmt>
  <desc>42503 - LENINE (GENTILLY)</desc>
</wpt>
<wpt lat="48.840577303" lon="2.366124462">
  <name>13151 - GARE D&apos;AUSTERLITZ</name>
  <cmt>13151 - GARE D&apos;AUSTERLITZ</cmt>
  <desc>13151 - GARE D&apos;AUSTERLITZ</desc>
</wpt>
<wpt lat="48.865346269" lon="2.310193788">
  <name>08029 - PLACE DU CANADA</name>
  <cmt>08029 - PLACE DU CANADA</cmt>
  <desc>08029 - PLACE DU CANADA</desc>
</wpt>
<wpt lat="48.844425920" lon="2.294041433">
  <name>15034 - COMMERCE</name>
  <cmt>15034 - COMMERCE</cmt>
  <desc>15034 - COMMERCE</desc>
</wpt>
<wpt lat="48.862132235" lon="2.364951387">
  <name>03003 - TURENNE BRETAGNE</name>
  <cmt>03003 - TURENNE BRETAGNE</cmt>
  <desc>03003 - TURENNE BRETAGNE</desc>
</wpt>
<wpt lat="48.825712904" lon="2.375044300">
  <name>13046 - OUDINE PATAY</name>
  <cmt>13046 - OUDINE PATAY</cmt>
  <desc>13046 - OUDINE PATAY</desc>
</wpt>
<wpt lat="48.865000818" lon="2.403980836">
  <name>20023 - PELLEPORT BELGRAND</name>
  <cmt>20023 - PELLEPORT BELGRAND</cmt>
  <desc>20023 - PELLEPORT BELGRAND</desc>
</wpt>
<wpt lat="48.862998167" lon="2.341555078">
  <name>01012 - BOURSE DU COMMERCE</name>
  <cmt>01012 - BOURSE DU COMMERCE</cmt>
  <desc>01012 - BOURSE DU COMMERCE</desc>
</wpt>
<wpt lat="48.818574416" lon="2.353260184">
  <name>13111 - CIMETIERE DE GENTILLY</name>
  <cmt>13111 - CIMETIERE DE GENTILLY</cmt>
  <desc>13111 - CIMETIERE DE GENTILLY</desc>
</wpt>
<wpt lat="48.814206285" lon="2.384207014">
  <name>42008 - CASANOVA (IVRY)</name>
  <cmt>42008 - CASANOVA (IVRY)</cmt>
  <desc>42008 - CASANOVA (IVRY)</desc>
</wpt>
<wpt lat="48.833654853" lon="2.413463576">
  <name>12041 - BOIS DE VINCENNES</name>
  <cmt>12041 - BOIS DE VINCENNES</cmt>
  <desc>12041 - BOIS DE VINCENNES</desc>
</wpt>
<wpt lat="48.900889627" lon="2.324819808">
  <name>34001 - FRUCTIDOR (SAINT OUEN)</name>
  <cmt>34001 - FRUCTIDOR (SAINT OUEN)</cmt>
  <desc>34001 - FRUCTIDOR (SAINT OUEN)</desc>
</wpt>
<wpt lat="48.903676702" lon="2.319176658">
  <name>21104 - SANZILLON (CLICHY)</name>
  <cmt>21104 - SANZILLON (CLICHY)</cmt>
  <desc>21104 - SANZILLON (CLICHY)</desc>
</wpt>
<wpt lat="48.852193095" lon="2.389021651">
  <name>11009 - RUE DES BOULETS</name>
  <cmt>11009 - RUE DES BOULETS</cmt>
  <desc>11009 - RUE DES BOULETS</desc>
</wpt>
<wpt lat="48.883029839" lon="2.386348840">
  <name>19031 - MANIN CRIMEE</name>
  <cmt>19031 - MANIN CRIMEE</cmt>
  <desc>19031 - MANIN CRIMEE</desc>
</wpt>
<wpt lat="48.891962329" lon="2.284204990">
  <name>23010 - VOLTAIRE (LEVALLOIS)</name>
  <cmt>23010 - VOLTAIRE (LEVALLOIS)</cmt>
  <desc>23010 - VOLTAIRE (LEVALLOIS)</desc>
</wpt>
<wpt lat="48.821159321" lon="2.358701218">
  <name>13031 - ITALIE MAISON BLANCHE</name>
  <cmt>13031 - ITALIE MAISON BLANCHE</cmt>
  <desc>13031 - ITALIE MAISON BLANCHE</desc>
</wpt>
<wpt lat="48.881032149" lon="2.340774412">
  <name>09017 - TRUDAINE MARTYRS</name>
  <cmt>09017 - TRUDAINE MARTYRS</cmt>
  <desc>09017 - TRUDAINE MARTYRS</desc>
</wpt>
<wpt lat="48.837721459" lon="2.382217337">
  <name>12026 - PARC DE BERCY</name>
  <cmt>12026 - PARC DE BERCY</cmt>
  <desc>12026 - PARC DE BERCY</desc>
</wpt>
<wpt lat="48.847296311" lon="2.385707672">
  <name>12012 - REUILLY DIDEROT</name>
  <cmt>12012 - REUILLY DIDEROT</cmt>
  <desc>12012 - REUILLY DIDEROT</desc>
</wpt>
<wpt lat="48.838993825" lon="2.349932053">
  <name>05026 - MOUFFETARD SAINT MEDARD</name>
  <cmt>05026 - MOUFFETARD SAINT MEDARD</cmt>
  <desc>05026 - MOUFFETARD SAINT MEDARD</desc>
</wpt>
<wpt lat="48.861205052" lon="2.367352329">
  <name>11045 - SAINT SEBASTIEN FROISSARD</name>
  <cmt>11045 - SAINT SEBASTIEN FROISSARD</cmt>
  <desc>11045 - SAINT SEBASTIEN FROISSARD</desc>
</wpt>
<wpt lat="48.879400053" lon="2.416160662">
  <name>32602 - POULMARCH (LES LILAS)</name>
  <cmt>32602 - POULMARCH (LES LILAS)</cmt>
  <desc>32602 - POULMARCH (LES LILAS)</desc>
</wpt>
<wpt lat="48.887940164" lon="2.326124420">
  <name>18046 - FOURCHE</name>
  <cmt>18046 - FOURCHE</cmt>
  <desc>18046 - FOURCHE</desc>
</wpt>
<wpt lat="48.871662662" lon="2.363933311">
  <name>10014 - BEAUREPAIRE</name>
  <cmt>10014 - BEAUREPAIRE</cmt>
  <desc>10014 - BEAUREPAIRE</desc>
</wpt>
<wpt lat="48.898490053" lon="2.386120008">
  <name>19115 - PORTE DE LA VILLETTE</name>
  <cmt>19115 - PORTE DE LA VILLETTE</cmt>
  <desc>19115 - PORTE DE LA VILLETTE</desc>
</wpt>
<wpt lat="48.832934194" lon="2.402636749">
  <name>12113 - CARDINAL LAVIGERIE</name>
  <cmt>12113 - CARDINAL LAVIGERIE</cmt>
  <desc>12113 - CARDINAL LAVIGERIE</desc>
</wpt>
<wpt lat="48.872157380" lon="2.391739174">
  <name>20042 - PYRENEES ERMITAGE</name>
  <cmt>20042 - PYRENEES ERMITAGE</cmt>
  <desc>20042 - PYRENEES ERMITAGE</desc>
</wpt>
<wpt lat="48.860897798" lon="2.295599598">
  <name>07023 - BOURDONNAIS TOUR EIFFEL</name>
  <cmt>07023 - BOURDONNAIS TOUR EIFFEL</cmt>
  <desc>07023 - BOURDONNAIS TOUR EIFFEL</desc>
</wpt>
<wpt lat="48.887573071" lon="2.334327336">
  <name>18113 - LEPIC</name>
  <cmt>18113 - LEPIC</cmt>
  <desc>18113 - LEPIC</desc>
</wpt>
<wpt lat="48.880606054" lon="2.397896291">
  <name>19027 - SERRURIER</name>
  <cmt>19027 - SERRURIER</cmt>
  <desc>19027 - SERRURIER</desc>
</wpt>
<wpt lat="48.886526983" lon="2.407468689">
  <name>33102 - JAURES 1 (PRE SAINT GERVAIS)</name>
  <cmt>33102 - JAURES 1 (PRE SAINT GERVAIS)</cmt>
  <desc>33102 - JAURES 1 (PRE SAINT GERVAIS)</desc>
</wpt>
<wpt lat="48.881953172" lon="2.392496217">
  <name>19026 - DANUBE</name>
  <cmt>19026 - DANUBE</cmt>
  <desc>19026 - DANUBE</desc>
</wpt>
<wpt lat="48.888800021" lon="2.296319932">
  <name>17028 - PORTE DE COURCELLE</name>
  <cmt>17028 - PORTE DE COURCELLE</cmt>
  <desc>17028 - PORTE DE COURCELLE</desc>
</wpt>
<wpt lat="48.883639154" lon="2.295152067">
  <name>17030 - RENNEQUIN PEREIRE</name>
  <cmt>17030 - RENNEQUIN PEREIRE</cmt>
  <desc>17030 - RENNEQUIN PEREIRE</desc>
</wpt>
<wpt lat="48.874575037" lon="2.356796765">
  <name>10017 - GARE DE L&apos;EST SAINT LAURENT</name>
  <cmt>10017 - GARE DE L&apos;EST SAINT LAURENT</cmt>
  <desc>10017 - GARE DE L&apos;EST SAINT LAURENT</desc>
</wpt>
<wpt lat="48.843417232" lon="2.275108332">
  <name>15103 - SQUARE DES C$$VENNES</name>
  <cmt>15103 - SQUARE DES C$$VENNES</cmt>
  <desc>15103 - SQUARE DES C$$VENNES</desc>
</wpt>
<wpt lat="48.872787681" lon="2.309722589">
  <name>08033 - SAINT PHILIPPE DU ROULE</name>
  <cmt>08033 - SAINT PHILIPPE DU ROULE</cmt>
  <desc>08033 - SAINT PHILIPPE DU ROULE</desc>
</wpt>
<wpt lat="48.879561452" lon="2.388960411">
  <name>19025 - BOTZARIS</name>
  <cmt>19025 - BOTZARIS</cmt>
  <desc>19025 - BOTZARIS</desc>
</wpt>
<wpt lat="48.857999643" lon="2.350217281">
  <name>04018 - RIVOLI SEBASTOPOL</name>
  <cmt>04018 - RIVOLI SEBASTOPOL</cmt>
  <desc>04018 - RIVOLI SEBASTOPOL</desc>
</wpt>
<wpt lat="48.840610400" lon="2.258373658">
  <name>16118 - MICHEL ANGE</name>
  <cmt>16118 - MICHEL ANGE</cmt>
  <desc>16118 - MICHEL ANGE</desc>
</wpt>
<wpt lat="48.870000617" lon="2.348995518">
  <name>02107 - THOREL</name>
  <cmt>02107 - THOREL</cmt>
  <desc>02107 - THOREL</desc>
</wpt>
<wpt lat="48.814662496" lon="2.361345503">
  <name>42706 - SALENGRO (KREMLIN BICETRE)</name>
  <cmt>42706 - SALENGRO (KREMLIN BICETRE)</cmt>
  <desc>42706 - SALENGRO (KREMLIN BICETRE)</desc>
</wpt>
<wpt lat="48.865394165" lon="2.397814475">
  <name>20025 - GAMBETTA GATINES</name>
  <cmt>20025 - GAMBETTA GATINES</cmt>
  <desc>20025 - GAMBETTA GATINES</desc>
</wpt>
<wpt lat="48.880470872" lon="2.237362446">
  <name>28003 - JAURES (PUTEAUX)</name>
  <cmt>28003 - JAURES (PUTEAUX)</cmt>
  <desc>28003 - JAURES (PUTEAUX)</desc>
</wpt>
<wpt lat="48.830555999" lon="2.333783298">
  <name>14009 - COTY TOMBE D&apos;ISSOIRE</name>
  <cmt>14009 - COTY TOMBE D&apos;ISSOIRE</cmt>
  <desc>14009 - COTY TOMBE D&apos;ISSOIRE</desc>
</wpt>
<wpt lat="48.869469605" lon="2.371536811">
  <name>11035 - GONCOURT</name>
  <cmt>11035 - GONCOURT</cmt>
  <desc>11035 - GONCOURT</desc>
</wpt>
<wpt lat="48.895470370" lon="2.349865451">
  <name>18101 - CHAMPIONNET</name>
  <cmt>18101 - CHAMPIONNET</cmt>
  <desc>18101 - CHAMPIONNET</desc>
</wpt>
<wpt lat="48.845831420" lon="2.301753087">
  <name>15011 - THEBAUD RUE DE CAMBRONNE</name>
  <cmt>15011 - THEBAUD RUE DE CAMBRONNE</cmt>
  <desc>15011 - THEBAUD RUE DE CAMBRONNE</desc>
</wpt>
<wpt lat="48.833508332" lon="2.386133169">
  <name>12033 - SAINT EMILION</name>
  <cmt>12033 - SAINT EMILION</cmt>
  <desc>12033 - SAINT EMILION</desc>
</wpt>
<wpt lat="48.869956682" lon="2.326599657">
  <name>09034 - GODOT DE MAUROY</name>
  <cmt>09034 - GODOT DE MAUROY</cmt>
  <desc>09034 - GODOT DE MAUROY</desc>
</wpt>
<wpt lat="48.837883628" lon="2.322551640">
  <name>14035 - MAINE GAITE</name>
  <cmt>14035 - MAINE GAITE</cmt>
  <desc>14035 - MAINE GAITE</desc>
</wpt>
<wpt lat="48.837998295" lon="2.240846665">
  <name>21009 - LECORBUSIER (BOULOGNE-BILLANCOURT)</name>
  <cmt>21009 - LECORBUSIER (BOULOGNE-BILLANCOURT)</cmt>
  <desc>21009 - LECORBUSIER (BOULOGNE-BILLANCOURT)</desc>
</wpt>
<wpt lat="48.890586216" lon="2.303457409">
  <name>17023 - AVENUE DE LA PORTE D&apos;ASNI$$RES</name>
  <cmt>17023 - AVENUE DE LA PORTE D&apos;ASNI$$RES</cmt>
  <desc>17023 - AVENUE DE LA PORTE D&apos;ASNI$$RES</desc>
</wpt>
<wpt lat="48.868940643" lon="2.381282601">
  <name>20039 - COURONNES</name>
  <cmt>20039 - COURONNES</cmt>
  <desc>20039 - COURONNES</desc>
</wpt>
<wpt lat="48.865855496" lon="2.282859909">
  <name>16010 - BELLES FEUILLES</name>
  <cmt>16010 - BELLES FEUILLES</cmt>
  <desc>16010 - BELLES FEUILLES</desc>
</wpt>
<wpt lat="48.872882991" lon="2.299972933">
  <name>08052 - WASHINGTON</name>
  <cmt>08052 - WASHINGTON</cmt>
  <desc>08052 - WASHINGTON</desc>
</wpt>
<wpt lat="48.881857151" lon="2.301138378">
  <name>17026 - WAGRAM COURCELLES</name>
  <cmt>17026 - WAGRAM COURCELLES</cmt>
  <desc>17026 - WAGRAM COURCELLES</desc>
</wpt>
<wpt lat="48.810477500" lon="2.358172896">
  <name>42702 - LECLERC (KREMLIN BICETRE)</name>
  <cmt>42702 - LECLERC (KREMLIN BICETRE)</cmt>
  <desc>42702 - LECLERC (KREMLIN BICETRE)</desc>
</wpt>
<wpt lat="48.827746266" lon="2.320714098">
  <name>14110 - ABBE CARTON</name>
  <cmt>14110 - ABBE CARTON</cmt>
  <desc>14110 - ABBE CARTON</desc>
</wpt>
<wpt lat="48.879049311" lon="2.354159096">
  <name>10152 - GARE DU NORD 2</name>
  <cmt>10152 - GARE DU NORD 2</cmt>
  <desc>10152 - GARE DU NORD 2</desc>
</wpt>
<wpt lat="48.823416301" lon="2.322936857">
  <name>14107 - PORTE DE MONTROUGE 2</name>
  <cmt>14107 - PORTE DE MONTROUGE 2</cmt>
  <desc>14107 - PORTE DE MONTROUGE 2</desc>
</wpt>
<wpt lat="48.848170341" lon="2.289906646">
  <name>15031 - THEATRE</name>
  <cmt>15031 - THEATRE</cmt>
  <desc>15031 - THEATRE</desc>
</wpt>
<wpt lat="48.849259262" lon="2.391754614">
  <name>11010 - ST ANTOINE GONNET</name>
  <cmt>11010 - ST ANTOINE GONNET</cmt>
  <desc>11010 - ST ANTOINE GONNET</desc>
</wpt>
<wpt lat="48.858651710" lon="2.303716580">
  <name>07021 - BOSQUET SAINT DOMINIQUE</name>
  <cmt>07021 - BOSQUET SAINT DOMINIQUE</cmt>
  <desc>07021 - BOSQUET SAINT DOMINIQUE</desc>
</wpt>
<wpt lat="48.870306124" lon="2.285074541">
  <name>16005 - POINCARE VICTOR HUGO</name>
  <cmt>16005 - POINCARE VICTOR HUGO</cmt>
  <desc>16005 - POINCARE VICTOR HUGO</desc>
</wpt>
<wpt lat="48.823450547" lon="2.249665298">
  <name>21303 - ILES (ISSY LES MOULINEAUX)</name>
  <cmt>21303 - ILES (ISSY LES MOULINEAUX)</cmt>
  <desc>21303 - ILES (ISSY LES MOULINEAUX)</desc>
</wpt>
<wpt lat="48.832853908" lon="2.306898478">
  <name>15041 - LABROUSTE</name>
  <cmt>15041 - LABROUSTE</cmt>
  <desc>15041 - LABROUSTE</desc>
</wpt>
<wpt lat="48.828595284" lon="2.380220606">
  <name>13055 - LAGROUA</name>
  <cmt>13055 - LAGROUA</cmt>
  <desc>13055 - LAGROUA</desc>
</wpt>
<wpt lat="48.833174959" lon="2.257005867">
  <name>21021 - PARADIS (BOULOGNE-BILLANCOURT)</name>
  <cmt>21021 - PARADIS (BOULOGNE-BILLANCOURT)</cmt>
  <desc>21021 - PARADIS (BOULOGNE-BILLANCOURT)</desc>
</wpt>
<wpt lat="48.877420343" lon="2.366011449">
  <name>10025 - ECLUSES SAINT MARTIN</name>
  <cmt>10025 - ECLUSES SAINT MARTIN</cmt>
  <desc>10025 - ECLUSES SAINT MARTIN</desc>
</wpt>
<wpt lat="48.868910127" lon="2.392020489">
  <name>20121 - MENILMONTANT BOYER</name>
  <cmt>20121 - MENILMONTANT BOYER</cmt>
  <desc>20121 - MENILMONTANT BOYER</desc>
</wpt>
<wpt lat="48.893380050" lon="2.384999757">
  <name>19011 - ROUVET DAMPIERRE</name>
  <cmt>19011 - ROUVET DAMPIERRE</cmt>
  <desc>19011 - ROUVET DAMPIERRE</desc>
</wpt>
<wpt lat="48.821907969" lon="2.363334711">
  <name>13038 - CHOISY POINT D&apos;IVRY</name>
  <cmt>13038 - CHOISY POINT D&apos;IVRY</cmt>
  <desc>13038 - CHOISY POINT D&apos;IVRY</desc>
</wpt>
<wpt lat="48.866483515" lon="2.334433421">
  <name>01016 - OPERA PYRAMIDES</name>
  <cmt>01016 - OPERA PYRAMIDES</cmt>
  <desc>01016 - OPERA PYRAMIDES</desc>
</wpt>
<wpt lat="48.864065047" lon="2.347597913">
  <name>01102 - FRANCAISE</name>
  <cmt>01102 - FRANCAISE</cmt>
  <desc>01102 - FRANCAISE</desc>
</wpt>
<wpt lat="48.852786944" lon="2.275580584">
  <name>16025 - FONTAINE RAYNOUARD</name>
  <cmt>16025 - FONTAINE RAYNOUARD</cmt>
  <desc>16025 - FONTAINE RAYNOUARD</desc>
</wpt>
<wpt lat="48.861720329" lon="2.275346569">
  <name>16017 - RUE DE SIAM</name>
  <cmt>16017 - RUE DE SIAM</cmt>
  <desc>16017 - RUE DE SIAM</desc>
</wpt>
<wpt lat="48.878099276" lon="2.411046299">
  <name>20029 - PORTE DES LILAS</name>
  <cmt>20029 - PORTE DES LILAS</cmt>
  <desc>20029 - PORTE DES LILAS</desc>
</wpt>
<wpt lat="48.843126206" lon="2.222189236">
  <name>22101 - GARE ROUTIERE ( SAINT CLOUD)</name>
  <cmt>22101 - GARE ROUTIERE ( SAINT CLOUD)</cmt>
  <desc>22101 - GARE ROUTIERE ( SAINT CLOUD)</desc>
</wpt>
<wpt lat="48.859358524" lon="2.389613137">
  <name>20131 - REPOS</name>
  <cmt>20131 - REPOS</cmt>
  <desc>20131 - REPOS</desc>
</wpt>
<wpt lat="48.859150287" lon="2.347620088">
  <name>01003 - RIVOLI SAINT DENIS</name>
  <cmt>01003 - RIVOLI SAINT DENIS</cmt>
  <desc>01003 - RIVOLI SAINT DENIS</desc>
</wpt>
<wpt lat="48.892822963" lon="2.326803490">
  <name>17001 - GUY MOCQUET</name>
  <cmt>17001 - GUY MOCQUET</cmt>
  <desc>17001 - GUY MOCQUET</desc>
</wpt>
<wpt lat="48.859462389" lon="2.344366128">
  <name>01010 - PONT NEUF</name>
  <cmt>01010 - PONT NEUF</cmt>
  <desc>01010 - PONT NEUF</desc>
</wpt>
<wpt lat="48.888186986" lon="2.316861143">
  <name>17016 - BROCHANT</name>
  <cmt>17016 - BROCHANT</cmt>
  <desc>17016 - BROCHANT</desc>
</wpt>
<wpt lat="48.855106295" lon="2.373424542">
  <name>11002 - ROQUETTE THIERE</name>
  <cmt>11002 - ROQUETTE THIERE</cmt>
  <desc>11002 - ROQUETTE THIERE</desc>
</wpt>
<wpt lat="48.821138751" lon="2.378718607">
  <name>13120 - VITRY DESAULT</name>
  <cmt>13120 - VITRY DESAULT</cmt>
  <desc>13120 - VITRY DESAULT</desc>
</wpt>
<wpt lat="48.870421883" lon="2.323288995">
  <name>08004 - MALESHERBES PASQUIER</name>
  <cmt>08004 - MALESHERBES PASQUIER</cmt>
  <desc>08004 - MALESHERBES PASQUIER</desc>
</wpt>
<wpt lat="48.871956266" lon="2.384981390">
  <name>20113 - PARC DE BELLEVILLE</name>
  <cmt>20113 - PARC DE BELLEVILLE</cmt>
  <desc>20113 - PARC DE BELLEVILLE</desc>
</wpt>
<wpt lat="48.883843266" lon="2.367110644">
  <name>10036 - AQUEDUC</name>
  <cmt>10036 - AQUEDUC</cmt>
  <desc>10036 - AQUEDUC</desc>
</wpt>
<wpt lat="48.826657206" lon="2.405876723">
  <name>42207 - PARIS 3 (CHARENTON)</name>
  <cmt>42207 - PARIS 3 (CHARENTON)</cmt>
  <desc>42207 - PARIS 3 (CHARENTON)</desc>
</wpt>
<wpt lat="48.841923663" lon="2.389728979">
  <name>12028 - VIVALDI</name>
  <cmt>12028 - VIVALDI</cmt>
  <desc>12028 - VIVALDI</desc>
</wpt>
<wpt lat="48.850977230" lon="2.346076826">
  <name>05008 - ST GERMAIN-DANTE</name>
  <cmt>05008 - ST GERMAIN-DANTE</cmt>
  <desc>05008 - ST GERMAIN-DANTE</desc>
</wpt>
<wpt lat="48.866145747" lon="2.350844595">
  <name>02003 - ALLEE PIERRE LAZAEFF</name>
  <cmt>02003 - ALLEE PIERRE LAZAEFF</cmt>
  <desc>02003 - ALLEE PIERRE LAZAEFF</desc>
</wpt>
<wpt lat="48.863430502" lon="2.340169767">
  <name>01026 - COLONEL DRIANT</name>
  <cmt>01026 - COLONEL DRIANT</cmt>
  <desc>01026 - COLONEL DRIANT</desc>
</wpt>
<wpt lat="48.874092481" lon="2.389435908">
  <name>20112 - JOURDAIN</name>
  <cmt>20112 - JOURDAIN</cmt>
  <desc>20112 - JOURDAIN</desc>
</wpt>
<wpt lat="48.876692687" lon="2.283457593">
  <name>16101 - MALAKOFF</name>
  <cmt>16101 - MALAKOFF</cmt>
  <desc>16101 - MALAKOFF</desc>
</wpt>
<wpt lat="48.887772325" lon="2.320367866">
  <name>17110 - LEGENDRE</name>
  <cmt>17110 - LEGENDRE</cmt>
  <desc>17110 - LEGENDRE</desc>
</wpt>
<wpt lat="48.829684330" lon="2.275342587">
  <name>15120 - AVIA</name>
  <cmt>15120 - AVIA</cmt>
  <desc>15120 - AVIA</desc>
</wpt>
<wpt lat="48.874794995" lon="2.366669437">
  <name>10114 - HOPITAL SAINT LOUIS</name>
  <cmt>10114 - HOPITAL SAINT LOUIS</cmt>
  <desc>10114 - HOPITAL SAINT LOUIS</desc>
</wpt>
<wpt lat="48.885617416" lon="2.290781411">
  <name>17031 - PORTE DE CHAMPERET</name>
  <cmt>17031 - PORTE DE CHAMPERET</cmt>
  <desc>17031 - PORTE DE CHAMPERET</desc>
</wpt>
<wpt lat="48.856437410" lon="2.334797623">
  <name>06021 - BONAPARTE BEAUX ARTS</name>
  <cmt>06021 - BONAPARTE BEAUX ARTS</cmt>
  <desc>06021 - BONAPARTE BEAUX ARTS</desc>
</wpt>
<wpt lat="48.856150743" lon="2.275188415">
  <name>16031 - BOULAINVILLIERS</name>
  <cmt>16031 - BOULAINVILLIERS</cmt>
  <desc>16031 - BOULAINVILLIERS</desc>
</wpt>
<wpt lat="48.872799156" lon="2.291508179">
  <name>16103 - TRAKTIR</name>
  <cmt>16103 - TRAKTIR</cmt>
  <desc>16103 - TRAKTIR</desc>
</wpt>
<wpt lat="48.846129892" lon="2.324240578">
  <name>06027 - VAUGIRARD DESGOFFE</name>
  <cmt>06027 - VAUGIRARD DESGOFFE</cmt>
  <desc>06027 - VAUGIRARD DESGOFFE</desc>
</wpt>
<wpt lat="48.867293236" lon="2.307691606">
  <name>08030 - MONTAIGNE</name>
  <cmt>08030 - MONTAIGNE</cmt>
  <desc>08030 - MONTAIGNE</desc>
</wpt>
<wpt lat="48.849960035" lon="2.363239869">
  <name>04105 - MORLAND</name>
  <cmt>04105 - MORLAND</cmt>
  <desc>04105 - MORLAND</desc>
</wpt>
<wpt lat="48.852919680" lon="2.410522910">
  <name>20044 - DAVOUT VOLGA</name>
  <cmt>20044 - DAVOUT VOLGA</cmt>
  <desc>20044 - DAVOUT VOLGA</desc>
</wpt>
<wpt lat="48.827725237" lon="2.418272342">
  <name>12120 - CONSERVATION</name>
  <cmt>12120 - CONSERVATION</cmt>
  <desc>12120 - CONSERVATION</desc>
</wpt>
<wpt lat="48.864411409" lon="2.272448648">
  <name>16018 - FLANDRIN</name>
  <cmt>16018 - FLANDRIN</cmt>
  <desc>16018 - FLANDRIN</desc>
</wpt>
<wpt lat="48.830957464" lon="2.364107053">
  <name>13042 - NATIONALE BACH</name>
  <cmt>13042 - NATIONALE BACH</cmt>
  <desc>13042 - NATIONALE BACH</desc>
</wpt>
<wpt lat="48.836481129" lon="2.479464269">
  <name>41302 - CHARLES DE GAULLE (NOGENT)</name>
  <cmt>41302 - CHARLES DE GAULLE (NOGENT)</cmt>
  <desc>41302 - CHARLES DE GAULLE (NOGENT)</desc>
</wpt>
<wpt lat="48.898197023" lon="2.293848018">
  <name>23004 - COUTURIER 2 (LEVALLOIS)</name>
  <cmt>23004 - COUTURIER 2 (LEVALLOIS)</cmt>
  <desc>23004 - COUTURIER 2 (LEVALLOIS)</desc>
</wpt>
<wpt lat="48.840869460" lon="2.387564335">
  <name>12109 - CHAROLAIS</name>
  <cmt>12109 - CHAROLAIS</cmt>
  <desc>12109 - CHAROLAIS</desc>
</wpt>
<wpt lat="48.875185864" lon="2.332036313">
  <name>09030 - VICTOIR CHAUSSEE D ANTIN</name>
  <cmt>09030 - VICTOIR CHAUSSEE D ANTIN</cmt>
  <desc>09030 - VICTOIR CHAUSSEE D ANTIN</desc>
</wpt>
<wpt lat="48.889677905" lon="2.338178714">
  <name>18017 - PECQUEUR</name>
  <cmt>18017 - PECQUEUR</cmt>
  <desc>18017 - PECQUEUR</desc>
</wpt>
<wpt lat="48.884706864" lon="2.353580410">
  <name>18107 - CHARTRES</name>
  <cmt>18107 - CHARTRES</cmt>
  <desc>18107 - CHARTRES</desc>
</wpt>
<wpt lat="48.844838019" lon="2.311085506">
  <name>15008 - SEVRES LECOURBE</name>
  <cmt>15008 - SEVRES LECOURBE</cmt>
  <desc>15008 - SEVRES LECOURBE</desc>
</wpt>
<wpt lat="48.851294335" lon="2.309747616">
  <name>07018 - SEGUR ESTREES</name>
  <cmt>07018 - SEGUR ESTREES</cmt>
  <desc>07018 - SEGUR ESTREES</desc>
</wpt>
<wpt lat="48.897130053" lon="2.396079008">
  <name>19044 - GRANDS MOULINS</name>
  <cmt>19044 - GRANDS MOULINS</cmt>
  <desc>19044 - GRANDS MOULINS</desc>
</wpt>
<wpt lat="48.873267841" lon="2.359323613">
  <name>10012 - VINAIGRIERS</name>
  <cmt>10012 - VINAIGRIERS</cmt>
  <desc>10012 - VINAIGRIERS</desc>
</wpt>
<wpt lat="48.861640500" lon="2.302250344">
  <name>07022 - PONT DE L&apos;ALMA</name>
  <cmt>07022 - PONT DE L&apos;ALMA</cmt>
  <desc>07022 - PONT DE L&apos;ALMA</desc>
</wpt>
<wpt lat="48.889485840" lon="2.414307515">
  <name>35012 - CANDALE (PANTIN)</name>
  <cmt>35012 - CANDALE (PANTIN)</cmt>
  <desc>35012 - CANDALE (PANTIN)</desc>
</wpt>
<wpt lat="48.860245195" lon="2.344333545">
  <name>01009 - PONT NEUF - 14</name>
  <cmt>01009 - PONT NEUF - 14</cmt>
  <desc>01009 - PONT NEUF - 14</desc>
</wpt>
<wpt lat="48.835981004" lon="2.293467119">
  <name>15051 - ROLLET</name>
  <cmt>15051 - ROLLET</cmt>
  <desc>15051 - ROLLET</desc>
</wpt>
<wpt lat="48.851285276" lon="2.412733642">
  <name>20107 - STADE MARYSE HILSZ</name>
  <cmt>20107 - STADE MARYSE HILSZ</cmt>
  <desc>20107 - STADE MARYSE HILSZ</desc>
</wpt>
<wpt lat="48.883318044" lon="2.326207175">
  <name>08012 - CLICHY</name>
  <cmt>08012 - CLICHY</cmt>
  <desc>08012 - CLICHY</desc>
</wpt>
<wpt lat="48.867497989" lon="2.353660816">
  <name>03012 - GAITE LYRIQUE</name>
  <cmt>03012 - GAITE LYRIQUE</cmt>
  <desc>03012 - GAITE LYRIQUE</desc>
</wpt>
<wpt lat="48.870278079" lon="2.351281637">
  <name>10105 - BONNE NOUVELLE PROP2</name>
  <cmt>10105 - BONNE NOUVELLE PROP2</cmt>
  <desc>10105 - BONNE NOUVELLE PROP2</desc>
</wpt>
<wpt lat="48.872795020" lon="2.328315743">
  <name>09033 - HAVRE CAUMARTIN</name>
  <cmt>09033 - HAVRE CAUMARTIN</cmt>
  <desc>09033 - HAVRE CAUMARTIN</desc>
</wpt>
<wpt lat="48.820323646" lon="2.323003041">
  <name>14116 - ROMAIN ROLLAND</name>
  <cmt>14116 - ROMAIN ROLLAND</cmt>
  <desc>14116 - ROMAIN ROLLAND</desc>
</wpt>
<wpt lat="48.842647779" lon="2.386164928">
  <name>12027 - MONTGALLET CHARENTON</name>
  <cmt>12027 - MONTGALLET CHARENTON</cmt>
  <desc>12027 - MONTGALLET CHARENTON</desc>
</wpt>
<wpt lat="48.829026670" lon="2.361069024">
  <name>13034 - EDISON</name>
  <cmt>13034 - EDISON</cmt>
  <desc>13034 - EDISON</desc>
</wpt>
<wpt lat="48.879398264" lon="2.333709173">
  <name>09026 - BRUYERE PIGALLE</name>
  <cmt>09026 - BRUYERE PIGALLE</cmt>
  <desc>09026 - BRUYERE PIGALLE</desc>
</wpt>
<wpt lat="48.885437731" lon="2.316473836">
  <name>17013 - LEGENDRE</name>
  <cmt>17013 - LEGENDRE</cmt>
  <desc>17013 - LEGENDRE</desc>
</wpt>
<wpt lat="48.855501313" lon="2.422055734">
  <name>31004 - PARIS 2 (MONTREUIL)</name>
  <cmt>31004 - PARIS 2 (MONTREUIL)</cmt>
  <desc>31004 - PARIS 2 (MONTREUIL)</desc>
</wpt>
<wpt lat="48.872190251" lon="2.329423494">
  <name>09106 - AUBER</name>
  <cmt>09106 - AUBER</cmt>
  <desc>09106 - AUBER</desc>
</wpt>
<wpt lat="48.851004875" lon="2.272469483">
  <name>16028 - MILLET - JEAN DE LA FONTAINE</name>
  <cmt>16028 - MILLET - JEAN DE LA FONTAINE</cmt>
  <desc>16028 - MILLET - JEAN DE LA FONTAINE</desc>
</wpt>
<wpt lat="48.896328349" lon="2.333390424">
  <name>18034 - LEIBNITZ</name>
  <cmt>18034 - LEIBNITZ</cmt>
  <desc>18034 - LEIBNITZ</desc>
</wpt>
<wpt lat="48.843756981" lon="2.339306722">
  <name>05010 - SAINT MICHEL HENRI BARBUSSE</name>
  <cmt>05010 - SAINT MICHEL HENRI BARBUSSE</cmt>
  <desc>05010 - SAINT MICHEL HENRI BARBUSSE</desc>
</wpt>
<wpt lat="48.846188001" lon="2.370406162">
  <name>12102 - DIDEROT BERCY</name>
  <cmt>12102 - DIDEROT BERCY</cmt>
  <desc>12102 - DIDEROT BERCY</desc>
</wpt>
<wpt lat="48.849690411" lon="2.352970184">
  <name>05019 - POISSY</name>
  <cmt>05019 - POISSY</cmt>
  <desc>05019 - POISSY</desc>
</wpt>
<wpt lat="48.845097127" lon="2.265724148">
  <name>16038 - RUE MOLITOR</name>
  <cmt>16038 - RUE MOLITOR</cmt>
  <desc>16038 - RUE MOLITOR</desc>
</wpt>
<wpt lat="48.873346275" lon="2.337980868">
  <name>09022 - LAFITTE ROSSINI</name>
  <cmt>09022 - LAFITTE ROSSINI</cmt>
  <desc>09022 - LAFITTE ROSSINI</desc>
</wpt>
<wpt lat="48.865307984" lon="2.376019912">
  <name>11030 - SAINT MAUR OBERKAMPF</name>
  <cmt>11030 - SAINT MAUR OBERKAMPF</cmt>
  <desc>11030 - SAINT MAUR OBERKAMPF</desc>
</wpt>
<wpt lat="48.863757931" lon="2.267504684">
  <name>16130 - BOIS DE BOULOGNE / PORTE DE LA MUETTE 2</name>
  <cmt>16130 - BOIS DE BOULOGNE / PORTE DE LA MUETTE 2</cmt>
  <desc>16130 - BOIS DE BOULOGNE / PORTE DE LA MUETTE 2</desc>
</wpt>
<wpt lat="48.846961260" lon="2.452237397">
  <name>43009 - MURS DU PARC (VINCENNES)</name>
  <cmt>43009 - MURS DU PARC (VINCENNES)</cmt>
  <desc>43009 - MURS DU PARC (VINCENNES)</desc>
</wpt>
<wpt lat="48.840400404" lon="2.313117867">
  <name>15113 - FALGUIERE ARSONVAL</name>
  <cmt>15113 - FALGUIERE ARSONVAL</cmt>
  <desc>15113 - FALGUIERE ARSONVAL</desc>
</wpt>
<wpt lat="48.857091635" lon="2.341747995">
  <name>01001 - ILE DE LA CITE PONT NEUF</name>
  <cmt>01001 - ILE DE LA CITE PONT NEUF</cmt>
  <desc>01001 - ILE DE LA CITE PONT NEUF</desc>
</wpt>
<wpt lat="48.884127108" lon="2.328807098">
  <name>18044 - CLICHY</name>
  <cmt>18044 - CLICHY</cmt>
  <desc>18044 - CLICHY</desc>
</wpt>
<wpt lat="48.893614652" lon="2.277618727">
  <name>23001 - COUTURIER 1 (LEVALLOIS)</name>
  <cmt>23001 - COUTURIER 1 (LEVALLOIS)</cmt>
  <desc>23001 - COUTURIER 1 (LEVALLOIS)</desc>
</wpt>
<wpt lat="48.877532084" lon="2.294512536">
  <name>17046 - MAC MAHON</name>
  <cmt>17046 - MAC MAHON</cmt>
  <desc>17046 - MAC MAHON</desc>
</wpt>
<wpt lat="48.888786071" lon="2.392686122">
  <name>19018 - CIT$$ DE LA MUSIQUE</name>
  <cmt>19018 - CIT$$ DE LA MUSIQUE</cmt>
  <desc>19018 - CIT$$ DE LA MUSIQUE</desc>
</wpt>
<wpt lat="48.816980981" lon="2.332609688">
  <name>14126 - VAILLANT COUTURIER</name>
  <cmt>14126 - VAILLANT COUTURIER</cmt>
  <desc>14126 - VAILLANT COUTURIER</desc>
</wpt>
<wpt lat="48.848427614" lon="2.265253821">
  <name>16033 - MICHEL ANGE AUTEUIL</name>
  <cmt>16033 - MICHEL ANGE AUTEUIL</cmt>
  <desc>16033 - MICHEL ANGE AUTEUIL</desc>
</wpt>
<wpt lat="48.851359913" lon="2.277697269">
  <name>16029 - MAISON DE RADIO FRANCE</name>
  <cmt>16029 - MAISON DE RADIO FRANCE</cmt>
  <desc>16029 - MAISON DE RADIO FRANCE</desc>
</wpt>
<wpt lat="48.884289440" lon="2.305497444">
  <name>17021 - WAGRAM (17EME ARR.)</name>
  <cmt>17021 - WAGRAM (17EME ARR.)</cmt>
  <desc>17021 - WAGRAM (17EME ARR.)</desc>
</wpt>
<wpt lat="48.881472498" lon="2.370262482">
  <name>19116 - JAURES VILLETTE</name>
  <cmt>19116 - JAURES VILLETTE</cmt>
  <desc>19116 - JAURES VILLETTE</desc>
</wpt>
<wpt lat="48.911570459" lon="2.333910127">
  <name>34010 - DIDEROT 2 (SAINT OUEN)</name>
  <cmt>34010 - DIDEROT 2 (SAINT OUEN)</cmt>
  <desc>34010 - DIDEROT 2 (SAINT OUEN)</desc>
</wpt>
<wpt lat="48.883026659" lon="2.260096984">
  <name>22006 - PIERRET (NEUILLY)</name>
  <cmt>22006 - PIERRET (NEUILLY)</cmt>
  <desc>22006 - PIERRET (NEUILLY)</desc>
</wpt>
<wpt lat="48.839635081" lon="2.300654459">
  <name>15038 - PLACE ADOLPHE CHERIOUX</name>
  <cmt>15038 - PLACE ADOLPHE CHERIOUX</cmt>
  <desc>15038 - PLACE ADOLPHE CHERIOUX</desc>
</wpt>
<wpt lat="48.886335083" lon="2.382461201">
  <name>19014 - LORRAINE</name>
  <cmt>19014 - LORRAINE</cmt>
  <desc>19014 - LORRAINE</desc>
</wpt>
<wpt lat="48.851602665" lon="2.398403047">
  <name>20043 - CHARONNE AVRON</name>
  <cmt>20043 - CHARONNE AVRON</cmt>
  <desc>20043 - CHARONNE AVRON</desc>
</wpt>
<wpt lat="48.815529634" lon="2.317029864">
  <name>21207 - VERDIER (MONTROUGE)</name>
  <cmt>21207 - VERDIER (MONTROUGE)</cmt>
  <desc>21207 - VERDIER (MONTROUGE)</desc>
</wpt>
<wpt lat="48.870682634" lon="2.398959602">
  <name>20036 - MENILMONTANT - PELLEPORT</name>
  <cmt>20036 - MENILMONTANT - PELLEPORT</cmt>
  <desc>20036 - MENILMONTANT - PELLEPORT</desc>
</wpt>
<wpt lat="48.852804605" lon="2.293077030">
  <name>15067 - DESAIX</name>
  <cmt>15067 - DESAIX</cmt>
  <desc>15067 - DESAIX</desc>
</wpt>
<wpt lat="48.885257971" lon="2.334617736">
  <name>18114 - LEPIC VERON</name>
  <cmt>18114 - LEPIC VERON</cmt>
  <desc>18114 - LEPIC VERON</desc>
</wpt>
<wpt lat="48.877753234" lon="2.327339291">
  <name>09035 - PLACE DE BUDAPEST</name>
  <cmt>09035 - PLACE DE BUDAPEST</cmt>
  <desc>09035 - PLACE DE BUDAPEST</desc>
</wpt>
<wpt lat="48.868660482" lon="2.350185888">
  <name>02016 - ABOUKIR</name>
  <cmt>02016 - ABOUKIR</cmt>
  <desc>02016 - ABOUKIR</desc>
</wpt>
<wpt lat="48.847184641" lon="2.353398380">
  <name>05021 - JUSSIEU</name>
  <cmt>05021 - JUSSIEU</cmt>
  <desc>05021 - JUSSIEU</desc>
</wpt>
<wpt lat="48.884691606" lon="2.344139286">
  <name>18006 - MARCHE ST-PIERRE</name>
  <cmt>18006 - MARCHE ST-PIERRE</cmt>
  <desc>18006 - MARCHE ST-PIERRE</desc>
</wpt>
<wpt lat="48.855965856" lon="2.356381155">
  <name>04015 - MAIRIE DU 4 EME</name>
  <cmt>04015 - MAIRIE DU 4 EME</cmt>
  <desc>04015 - MAIRIE DU 4 EME</desc>
</wpt>
<wpt lat="48.872747269" lon="2.408203454">
  <name>20117 - SAINT FARGEAU MORTIER</name>
  <cmt>20117 - SAINT FARGEAU MORTIER</cmt>
  <desc>20117 - SAINT FARGEAU MORTIER</desc>
</wpt>
<wpt lat="48.892139409" lon="2.409107738">
  <name>35009 - LOLIVE 1 (PANTIN)</name>
  <cmt>35009 - LOLIVE 1 (PANTIN)</cmt>
  <desc>35009 - LOLIVE 1 (PANTIN)</desc>
</wpt>
<wpt lat="48.884101293" lon="2.322206025">
  <name>17012 - MAIRIE DU 17EME</name>
  <cmt>17012 - MAIRIE DU 17EME</cmt>
  <desc>17012 - MAIRIE DU 17EME</desc>
</wpt>
<wpt lat="48.886798812" lon="2.374719517">
  <name>19029 - SEINE FLANDRE</name>
  <cmt>19029 - SEINE FLANDRE</cmt>
  <desc>19029 - SEINE FLANDRE</desc>
</wpt>
<wpt lat="48.870893426" lon="2.353521565">
  <name>10004 - METZ</name>
  <cmt>10004 - METZ</cmt>
  <desc>10004 - METZ</desc>
</wpt>
<wpt lat="48.870775757" lon="2.343163334">
  <name>02010 - BOULEVARD MONTMARTRE</name>
  <cmt>02010 - BOULEVARD MONTMARTRE</cmt>
  <desc>02010 - BOULEVARD MONTMARTRE</desc>
</wpt>
<wpt lat="48.882353260" lon="2.333263373">
  <name>09027 - FONTAINE DOUAI</name>
  <cmt>09027 - FONTAINE DOUAI</cmt>
  <desc>09027 - FONTAINE DOUAI</desc>
</wpt>
<wpt lat="48.864420142" lon="2.366136374">
  <name>11040 - TEMPLE JEAN PIERRE TIMBAUD</name>
  <cmt>11040 - TEMPLE JEAN PIERRE TIMBAUD</cmt>
  <desc>11040 - TEMPLE JEAN PIERRE TIMBAUD</desc>
</wpt>
<wpt lat="48.845638139" lon="2.237011471">
  <name>21003 - JAURES 1 (BOULOGNE-BILLANCOURT)</name>
  <cmt>21003 - JAURES 1 (BOULOGNE-BILLANCOURT)</cmt>
  <desc>21003 - JAURES 1 (BOULOGNE-BILLANCOURT)</desc>
</wpt>
<wpt lat="48.826900200" lon="2.365177603">
  <name>13036 - TOLBIAC NATIONALE</name>
  <cmt>13036 - TOLBIAC NATIONALE</cmt>
  <desc>13036 - TOLBIAC NATIONALE</desc>
</wpt>
<wpt lat="48.814140538" lon="2.390909368">
  <name>42014 - CACHIN (IVRY)</name>
  <cmt>42014 - CACHIN (IVRY)</cmt>
  <desc>42014 - CACHIN (IVRY)</desc>
</wpt>
<wpt lat="48.876419814" lon="2.358630065">
  <name>00906 - GARE DE L&apos;EST</name>
  <cmt>00906 - GARE DE L&apos;EST</cmt>
  <desc>00906 - GARE DE L&apos;EST</desc>
</wpt>
<wpt lat="48.839325025" lon="2.320954126">
  <name>14117 - MOUCHOTTE</name>
  <cmt>14117 - MOUCHOTTE</cmt>
  <desc>14117 - MOUCHOTTE</desc>
</wpt>
<wpt lat="48.881997210" lon="2.363625215">
  <name>10031 - AQUEDUC</name>
  <cmt>10031 - AQUEDUC</cmt>
  <desc>10031 - AQUEDUC</desc>
</wpt>
<wpt lat="48.829410135" lon="2.375934558">
  <name>13053 - CHEVALERET TOLBIAC</name>
  <cmt>13053 - CHEVALERET TOLBIAC</cmt>
  <desc>13053 - CHEVALERET TOLBIAC</desc>
</wpt>
<wpt lat="48.876719895" lon="2.344393022">
  <name>09010 - CADET</name>
  <cmt>09010 - CADET</cmt>
  <desc>09010 - CADET</desc>
</wpt>
<wpt lat="48.857940093" lon="2.347010058">
  <name>01002 - PLACE DU CHATELET</name>
  <cmt>01002 - PLACE DU CHATELET</cmt>
  <desc>01002 - PLACE DU CHATELET</desc>
</wpt>
<wpt lat="48.840267725" lon="2.379519528">
  <name>12025 - BERCY</name>
  <cmt>12025 - BERCY</cmt>
  <desc>12025 - BERCY</desc>
</wpt>
<wpt lat="48.865983241" lon="2.275725636">
  <name>16107 - GODARD</name>
  <cmt>16107 - GODARD</cmt>
  <desc>16107 - GODARD</desc>
</wpt>
<wpt lat="48.824342857" lon="2.376060092">
  <name>13118 - PATAY REGNAULT</name>
  <cmt>13118 - PATAY REGNAULT</cmt>
  <desc>13118 - PATAY REGNAULT</desc>
</wpt>
<wpt lat="48.855355140" lon="2.399728590">
  <name>20013 - PLACE DE LA REUNION</name>
  <cmt>20013 - PLACE DE LA REUNION</cmt>
  <desc>20013 - PLACE DE LA REUNION</desc>
</wpt>
<wpt lat="48.880233628" lon="2.285380679">
  <name>17043 - PLACE GENERAL KOENIG</name>
  <cmt>17043 - PLACE GENERAL KOENIG</cmt>
  <desc>17043 - PLACE GENERAL KOENIG</desc>
</wpt>
<wpt lat="48.883498082" lon="2.282015590">
  <name>17105 - PALADINES</name>
  <cmt>17105 - PALADINES</cmt>
  <desc>17105 - PALADINES</desc>
</wpt>
<wpt lat="48.825709817" lon="2.321849987">
  <name>14037 - JEAN MOULIN</name>
  <cmt>14037 - JEAN MOULIN</cmt>
  <desc>14037 - JEAN MOULIN</desc>
</wpt>
<wpt lat="48.869090088" lon="2.324429630">
  <name>08005 - MADELEINE</name>
  <cmt>08005 - MADELEINE</cmt>
  <desc>08005 - MADELEINE</desc>
</wpt>
<wpt lat="48.846239282" lon="2.341324916">
  <name>05003 - GAY LUSSAC LE GOFF</name>
  <cmt>05003 - GAY LUSSAC LE GOFF</cmt>
  <desc>05003 - GAY LUSSAC LE GOFF</desc>
</wpt>
<wpt lat="48.868000000" lon="2.364980000">
  <name>11037 - FAUBOURG DU TEMPLE PLACE DE LA REPUBLIQUE</name>
  <cmt>11037 - FAUBOURG DU TEMPLE PLACE DE LA REPUBLIQUE</cmt>
  <desc>11037 - FAUBOURG DU TEMPLE PLACE DE LA REPUBLIQUE</desc>
</wpt>
<wpt lat="48.883849318" lon="2.360053089">
  <name>10034 - CHAPELLE LOUIS BLANC</name>
  <cmt>10034 - CHAPELLE LOUIS BLANC</cmt>
  <desc>10034 - CHAPELLE LOUIS BLANC</desc>
</wpt>
<wpt lat="48.811749821" lon="2.303169888">
  <name>21211 - MARNE (MONTROUGE)</name>
  <cmt>21211 - MARNE (MONTROUGE)</cmt>
  <desc>21211 - MARNE (MONTROUGE)</desc>
</wpt>
<wpt lat="48.875184961" lon="2.284219432">
  <name>16002 - PERGOLESE</name>
  <cmt>16002 - PERGOLESE</cmt>
  <desc>16002 - PERGOLESE</desc>
</wpt>
<wpt lat="48.831996369" lon="2.354809473">
  <name>13008 - ITALIE ROSALIE</name>
  <cmt>13008 - ITALIE ROSALIE</cmt>
  <desc>13008 - ITALIE ROSALIE</desc>
</wpt>
<wpt lat="48.905503115" lon="2.310820382">
  <name>21110 - VILLENEUVE (CLICHY)</name>
  <cmt>21110 - VILLENEUVE (CLICHY)</cmt>
  <desc>21110 - VILLENEUVE (CLICHY)</desc>
</wpt>
<wpt lat="48.882877752" lon="2.287667371">
  <name>17041 - PORTE DE VILLIERS</name>
  <cmt>17041 - PORTE DE VILLIERS</cmt>
  <desc>17041 - PORTE DE VILLIERS</desc>
</wpt>
<wpt lat="48.873555334" lon="2.303288666">
  <name>08102 - LAMENAIS WASHINGTON</name>
  <cmt>08102 - LAMENAIS WASHINGTON</cmt>
  <desc>08102 - LAMENAIS WASHINGTON</desc>
</wpt>
<wpt lat="48.862135038" lon="2.377229859">
  <name>11027 - SAINT AMBROISE PARMENTIER</name>
  <cmt>11027 - SAINT AMBROISE PARMENTIER</cmt>
  <desc>11027 - SAINT AMBROISE PARMENTIER</desc>
</wpt>
<wpt lat="48.836566224" lon="2.312707121">
  <name>15027 - GIDE</name>
  <cmt>15027 - GIDE</cmt>
  <desc>15027 - GIDE</desc>
</wpt>
<wpt lat="48.863469641" lon="2.409670100">
  <name>20045 - LOUIS GANNE</name>
  <cmt>20045 - LOUIS GANNE</cmt>
  <desc>20045 - LOUIS GANNE</desc>
</wpt>
<wpt lat="48.868499942" lon="2.359970050">
  <name>10001 - JOHANN STRAUSS</name>
  <cmt>10001 - JOHANN STRAUSS</cmt>
  <desc>10001 - JOHANN STRAUSS</desc>
</wpt>
<wpt lat="48.844806422" lon="2.297572006">
  <name>15021 - CROIX NIVERT</name>
  <cmt>15021 - CROIX NIVERT</cmt>
  <desc>15021 - CROIX NIVERT</desc>
</wpt>
<wpt lat="48.875821855" lon="2.347303230">
  <name>09113 - BLEUE</name>
  <cmt>09113 - BLEUE</cmt>
  <desc>09113 - BLEUE</desc>
</wpt>
<wpt lat="48.850458009" lon="2.352454275">
  <name>05107 - PONTOISE</name>
  <cmt>05107 - PONTOISE</cmt>
  <desc>05107 - PONTOISE</desc>
</wpt>
<wpt lat="48.879813218" lon="2.287956452">
  <name>17040 - TERNES PEREIRE</name>
  <cmt>17040 - TERNES PEREIRE</cmt>
  <desc>17040 - TERNES PEREIRE</desc>
</wpt>
<wpt lat="48.850125232" lon="2.455529172">
  <name>41203 - STALINGRAD (FONTENAY SOUS BOIS)</name>
  <cmt>41203 - STALINGRAD (FONTENAY SOUS BOIS)</cmt>
  <desc>41203 - STALINGRAD (FONTENAY SOUS BOIS)</desc>
</wpt>
<wpt lat="48.847575321" lon="2.302863101">
  <name>15010 - CAMBRONNE</name>
  <cmt>15010 - CAMBRONNE</cmt>
  <desc>15010 - CAMBRONNE</desc>
</wpt>
<wpt lat="48.871542214" lon="2.345836456">
  <name>09012 - ROUGEMONT</name>
  <cmt>09012 - ROUGEMONT</cmt>
  <desc>09012 - ROUGEMONT</desc>
</wpt>
<wpt lat="48.870508937" lon="2.334054462">
  <name>02015 - OPERA - CAPUCINES</name>
  <cmt>02015 - OPERA - CAPUCINES</cmt>
  <desc>02015 - OPERA - CAPUCINES</desc>
</wpt>
<wpt lat="48.914188312" lon="2.332082836">
  <name>34011 - DHALENNE (SAINT OUEN)</name>
  <cmt>34011 - DHALENNE (SAINT OUEN)</cmt>
  <desc>34011 - DHALENNE (SAINT OUEN)</desc>
</wpt>
<wpt lat="48.863025492" lon="2.415622204">
  <name>31706 - CHATEAU (BAGNOLET)</name>
  <cmt>31706 - CHATEAU (BAGNOLET)</cmt>
  <desc>31706 - CHATEAU (BAGNOLET)</desc>
</wpt>
<wpt lat="48.849215863" lon="2.370503424">
  <name>12002 - LACUEE</name>
  <cmt>12002 - LACUEE</cmt>
  <desc>12002 - LACUEE</desc>
</wpt>
<wpt lat="48.847175615" lon="2.307052148">
  <name>15009 - SUFFREN</name>
  <cmt>15009 - SUFFREN</cmt>
  <desc>15009 - SUFFREN</desc>
</wpt>
<wpt lat="48.840302745" lon="2.394630399">
  <name>12036 - REUILLY</name>
  <cmt>12036 - REUILLY</cmt>
  <desc>12036 - REUILLY</desc>
</wpt>
<wpt lat="48.838431825" lon="2.340794667">
  <name>14004 - PORT ROYAL COCHIN</name>
  <cmt>14004 - PORT ROYAL COCHIN</cmt>
  <desc>14004 - PORT ROYAL COCHIN</desc>
</wpt>
<wpt lat="48.866843803" lon="2.315779713">
  <name>08001 - PETIT PALAIS</name>
  <cmt>08001 - PETIT PALAIS</cmt>
  <desc>08001 - PETIT PALAIS</desc>
</wpt>
<wpt lat="48.868636405" lon="2.355591593">
  <name>03101 - PORTE SAINT MARTIN</name>
  <cmt>03101 - PORTE SAINT MARTIN</cmt>
  <desc>03101 - PORTE SAINT MARTIN</desc>
</wpt>
<wpt lat="48.870999990" lon="2.361141437">
  <name>10010 - JACQUES BONSERGENT</name>
  <cmt>10010 - JACQUES BONSERGENT</cmt>
  <desc>10010 - JACQUES BONSERGENT</desc>
</wpt>
<wpt lat="48.828156252" lon="2.358513533">
  <name>13122 - PARC DE CHOISY</name>
  <cmt>13122 - PARC DE CHOISY</cmt>
  <desc>13122 - PARC DE CHOISY</desc>
</wpt>
<wpt lat="48.894530904" lon="2.341541339">
  <name>18029 - POTEAU</name>
  <cmt>18029 - POTEAU</cmt>
  <desc>18029 - POTEAU</desc>
</wpt>
<wpt lat="48.834953980" lon="2.241688247">
  <name>21005 - MORIZET (BOULOGNE-BILLANCOURT)</name>
  <cmt>21005 - MORIZET (BOULOGNE-BILLANCOURT)</cmt>
  <desc>21005 - MORIZET (BOULOGNE-BILLANCOURT)</desc>
</wpt>
<wpt lat="48.834768379" lon="2.284142297">
  <name>15061 - DESNOUETTES</name>
  <cmt>15061 - DESNOUETTES</cmt>
  <desc>15061 - DESNOUETTES</desc>
</wpt>
<wpt lat="48.826502933" lon="2.309274800">
  <name>14122 - BRUNE</name>
  <cmt>14122 - BRUNE</cmt>
  <desc>14122 - BRUNE</desc>
</wpt>
<wpt lat="48.892925653" lon="2.344517921">
  <name>18025 - MAIRIE DU 18 EME</name>
  <cmt>18025 - MAIRIE DU 18 EME</cmt>
  <desc>18025 - MAIRIE DU 18 EME</desc>
</wpt>
<wpt lat="48.851230380" lon="2.325070039">
  <name>07003 - BON MARCHE</name>
  <cmt>07003 - BON MARCHE</cmt>
  <desc>07003 - BON MARCHE</desc>
</wpt>
<wpt lat="48.871379874" lon="2.369896384">
  <name>10113 - PARMENTIER LOUVEL-TESSIER</name>
  <cmt>10113 - PARMENTIER LOUVEL-TESSIER</cmt>
  <desc>10113 - PARMENTIER LOUVEL-TESSIER</desc>
</wpt>
<wpt lat="48.836675796" lon="2.391795856">
  <name>12030 - WATTIGNIES</name>
  <cmt>12030 - WATTIGNIES</cmt>
  <desc>12030 - WATTIGNIES</desc>
</wpt>
<wpt lat="48.875670112" lon="2.359509938">
  <name>10161 - GARE DE L&apos;EST</name>
  <cmt>10161 - GARE DE L&apos;EST</cmt>
  <desc>10161 - GARE DE L&apos;EST</desc>
</wpt>
<wpt lat="48.857802917" lon="2.277500547">
  <name>16043 - PLACE DE PASSY</name>
  <cmt>16043 - PLACE DE PASSY</cmt>
  <desc>16043 - PLACE DE PASSY</desc>
</wpt>
<wpt lat="48.844231933" lon="2.439209538">
  <name>12123 - CHATEAU DE VINCENNES</name>
  <cmt>12123 - CHATEAU DE VINCENNES</cmt>
  <desc>12123 - CHATEAU DE VINCENNES</desc>
</wpt>
<wpt lat="48.899268863" lon="2.342963477">
  <name>18122 - BINET</name>
  <cmt>18122 - BINET</cmt>
  <desc>18122 - BINET</desc>
</wpt>
<wpt lat="48.862880000" lon="2.306520000">
  <name>00908 - PORT DU GROS CAILLOU (STATION MOBILE)</name>
  <cmt>00908 - PORT DU GROS CAILLOU (STATION MOBILE)</cmt>
  <desc>00908 - PORT DU GROS CAILLOU (STATION MOBILE)</desc>
</wpt>
<wpt lat="48.824407768" lon="2.418455004">
  <name>12126 - AVENUE DE GRAVELLE</name>
  <cmt>12126 - AVENUE DE GRAVELLE</cmt>
  <desc>12126 - AVENUE DE GRAVELLE</desc>
</wpt>
<wpt lat="48.833190319" lon="2.336933391">
  <name>14006 - SAINT JACQUES TOMBE ISSOIRE</name>
  <cmt>14006 - SAINT JACQUES TOMBE ISSOIRE</cmt>
  <desc>14006 - SAINT JACQUES TOMBE ISSOIRE</desc>
</wpt>
<wpt lat="48.888185642" lon="2.310120537">
  <name>17117 - PEREIRE SAUSSURE</name>
  <cmt>17117 - PEREIRE SAUSSURE</cmt>
  <desc>17117 - PEREIRE SAUSSURE</desc>
</wpt>
<wpt lat="48.855254688" lon="2.337539334">
  <name>06013 - JACQUES CALLOT</name>
  <cmt>06013 - JACQUES CALLOT</cmt>
  <desc>06013 - JACQUES CALLOT</desc>
</wpt>
<wpt lat="48.873486169" lon="2.320281234">
  <name>08015 - ROQUEPINE</name>
  <cmt>08015 - ROQUEPINE</cmt>
  <desc>08015 - ROQUEPINE</desc>
</wpt>
<wpt lat="48.841632709" lon="2.348552018">
  <name>05014 - CALVIN</name>
  <cmt>05014 - CALVIN</cmt>
  <desc>05014 - CALVIN</desc>
</wpt>
<wpt lat="48.880574461" lon="2.376853001">
  <name>19119 - BOURET PAILLERON</name>
  <cmt>19119 - BOURET PAILLERON</cmt>
  <desc>19119 - BOURET PAILLERON</desc>
</wpt>
<wpt lat="48.826494328" lon="2.344301716">
  <name>13048 - TOLBIAC WURTZ</name>
  <cmt>13048 - TOLBIAC WURTZ</cmt>
  <desc>13048 - TOLBIAC WURTZ</desc>
</wpt>
<wpt lat="48.851647848" lon="2.330817074">
  <name>06003 - SAINT SULPICE</name>
  <cmt>06003 - SAINT SULPICE</cmt>
  <desc>06003 - SAINT SULPICE</desc>
</wpt>
<wpt lat="48.874923110" lon="2.319395144">
  <name>08113 - PLACE ST AUGUSTIN</name>
  <cmt>08113 - PLACE ST AUGUSTIN</cmt>
  <desc>08113 - PLACE ST AUGUSTIN</desc>
</wpt>
<wpt lat="48.879775249" lon="2.374834351">
  <name>19039 - PAILLERON</name>
  <cmt>19039 - PAILLERON</cmt>
  <desc>19039 - PAILLERON</desc>
</wpt>
<wpt lat="48.888864896" lon="2.355966721">
  <name>18012 - DOUDEAUVILLE STEPHENSON</name>
  <cmt>18012 - DOUDEAUVILLE STEPHENSON</cmt>
  <desc>18012 - DOUDEAUVILLE STEPHENSON</desc>
</wpt>
<wpt lat="48.826929767" lon="2.272250432">
  <name>21310 - KLEBER (ISSY LES MOULINEAUX)</name>
  <cmt>21310 - KLEBER (ISSY LES MOULINEAUX)</cmt>
  <desc>21310 - KLEBER (ISSY LES MOULINEAUX)</desc>
</wpt>
<wpt lat="48.822455948" lon="2.347382729">
  <name>13025 - PLACE DE RUNGIS</name>
  <cmt>13025 - PLACE DE RUNGIS</cmt>
  <desc>13025 - PLACE DE RUNGIS</desc>
</wpt>
<wpt lat="48.870658013" lon="2.424046438">
  <name>31702 - CURIE (BAGNOLET)</name>
  <cmt>31702 - CURIE (BAGNOLET)</cmt>
  <desc>31702 - CURIE (BAGNOLET)</desc>
</wpt>
<wpt lat="48.869679124" lon="2.354327697">
  <name>10002 - STRASBOURG</name>
  <cmt>10002 - STRASBOURG</cmt>
  <desc>10002 - STRASBOURG</desc>
</wpt>
<wpt lat="48.819954101" lon="2.464025505">
  <name>43401 - GARE RER (JOINVILLE)</name>
  <cmt>43401 - GARE RER (JOINVILLE)</cmt>
  <desc>43401 - GARE RER (JOINVILLE)</desc>
</wpt>
<wpt lat="48.857041450" lon="2.372894703">
  <name>11025 - FROMENT BREGUET</name>
  <cmt>11025 - FROMENT BREGUET</cmt>
  <desc>11025 - FROMENT BREGUET</desc>
</wpt>
<wpt lat="48.838936910" lon="2.316168412">
  <name>15114 - PASTEUR COTENTIN</name>
  <cmt>15114 - PASTEUR COTENTIN</cmt>
  <desc>15114 - PASTEUR COTENTIN</desc>
</wpt>
<wpt lat="48.849276638" lon="2.394934478">
  <name>11013 - NATION VOLAIRE</name>
  <cmt>11013 - NATION VOLAIRE</cmt>
  <desc>11013 - NATION VOLAIRE</desc>
</wpt>
<wpt lat="48.881830718" lon="2.292140666">
  <name>17037 - BAYERN PEREIRE</name>
  <cmt>17037 - BAYERN PEREIRE</cmt>
  <desc>17037 - BAYERN PEREIRE</desc>
</wpt>
<wpt lat="48.875639672" lon="2.343523592">
  <name>09101 - CADET LA FAYETTE</name>
  <cmt>09101 - CADET LA FAYETTE</cmt>
  <desc>09101 - CADET LA FAYETTE</desc>
</wpt>
<wpt lat="48.852529000" lon="2.380583632">
  <name>11101 - SQUARE NORDLING</name>
  <cmt>11101 - SQUARE NORDLING</cmt>
  <desc>11101 - SQUARE NORDLING</desc>
</wpt>
<wpt lat="48.830586296" lon="2.234490780">
  <name>21012 - LECLERC (BOULOGNE-BILLANCOURT)</name>
  <cmt>21012 - LECLERC (BOULOGNE-BILLANCOURT)</cmt>
  <desc>21012 - LECLERC (BOULOGNE-BILLANCOURT)</desc>
</wpt>
<wpt lat="48.852566752" lon="2.403928069">
  <name>20132 - REUNION</name>
  <cmt>20132 - REUNION</cmt>
  <desc>20132 - REUNION</desc>
</wpt>
<wpt lat="48.840398172" lon="2.409229421">
  <name>12042 - MONTEMPOIVRE</name>
  <cmt>12042 - MONTEMPOIVRE</cmt>
  <desc>12042 - MONTEMPOIVRE</desc>
</wpt>
<wpt lat="48.895219905" lon="2.360097619">
  <name>18038 - ROND POINT DE LA CHAPELLE</name>
  <cmt>18038 - ROND POINT DE LA CHAPELLE</cmt>
  <desc>18038 - ROND POINT DE LA CHAPELLE</desc>
</wpt>
<wpt lat="48.879577719" lon="2.354463131">
  <name>10153 - GARE DU NORD 3</name>
  <cmt>10153 - GARE DU NORD 3</cmt>
  <desc>10153 - GARE DU NORD 3</desc>
</wpt>
<wpt lat="48.876156054" lon="2.360914908">
  <name>10023 - VERDUN</name>
  <cmt>10023 - VERDUN</cmt>
  <desc>10023 - VERDUN</desc>
</wpt>
<wpt lat="48.876079329" lon="2.322731562">
  <name>08017 - ROCHER</name>
  <cmt>08017 - ROCHER</cmt>
  <desc>08017 - ROCHER</desc>
</wpt>
<wpt lat="48.860240121" lon="2.408758428">
  <name>20122 - DAVOUT VITRUVE</name>
  <cmt>20122 - DAVOUT VITRUVE</cmt>
  <desc>20122 - DAVOUT VITRUVE</desc>
</wpt>
<wpt lat="48.873794318" lon="2.306299550">
  <name>08103 - D&apos;ARTOIS BERRY</name>
  <cmt>08103 - D&apos;ARTOIS BERRY</cmt>
  <desc>08103 - D&apos;ARTOIS BERRY</desc>
</wpt>
<wpt lat="48.909330022" lon="2.358050566">
  <name>32003 - METALLURGIE (SAINT DENIS)</name>
  <cmt>32003 - METALLURGIE (SAINT DENIS)</cmt>
  <desc>32003 - METALLURGIE (SAINT DENIS)</desc>
</wpt>
<wpt lat="48.850418367" lon="2.434513786">
  <name>43004 - MONTREUIL (VINCENNES)</name>
  <cmt>43004 - MONTREUIL (VINCENNES)</cmt>
  <desc>43004 - MONTREUIL (VINCENNES)</desc>
</wpt>
<wpt lat="48.882608816" lon="2.309026487">
  <name>17019 - MALESHERBES</name>
  <cmt>17019 - MALESHERBES</cmt>
  <desc>17019 - MALESHERBES</desc>
</wpt>
<wpt lat="48.884924359" lon="2.310908553">
  <name>17119 - TOQUEVILLE</name>
  <cmt>17119 - TOQUEVILLE</cmt>
  <desc>17119 - TOQUEVILLE</desc>
</wpt>
<wpt lat="48.868851689" lon="2.339731401">
  <name>02009 - BOURSE</name>
  <cmt>02009 - BOURSE</cmt>
  <desc>02009 - BOURSE</desc>
</wpt>
<wpt lat="48.886393679" lon="2.386541454">
  <name>19016 - OURCQ</name>
  <cmt>19016 - OURCQ</cmt>
  <desc>19016 - OURCQ</desc>
</wpt>
<wpt lat="48.864423649" lon="2.410411116">
  <name>20115 - PORTE DE BAGNOLET</name>
  <cmt>20115 - PORTE DE BAGNOLET</cmt>
  <desc>20115 - PORTE DE BAGNOLET</desc>
</wpt>
<wpt lat="48.858445054" lon="2.390398122">
  <name>11021 - PHILIPPE AUGUSTE (20EME ARR.)</name>
  <cmt>11021 - PHILIPPE AUGUSTE (20EME ARR.)</cmt>
  <desc>11021 - PHILIPPE AUGUSTE (20EME ARR.)</desc>
</wpt>
<wpt lat="48.877455677" lon="2.309694221">
  <name>08036 - RIO</name>
  <cmt>08036 - RIO</cmt>
  <desc>08036 - RIO</desc>
</wpt>
<wpt lat="48.885301622" lon="2.347211038">
  <name>18002 - CLIGNANCOURT</name>
  <cmt>18002 - CLIGNANCOURT</cmt>
  <desc>18002 - CLIGNANCOURT</desc>
</wpt>
<wpt lat="48.836125843" lon="2.470375451">
  <name>41301 - CLEMANCEAU (NOGENT)</name>
  <cmt>41301 - CLEMANCEAU (NOGENT)</cmt>
  <desc>41301 - CLEMANCEAU (NOGENT)</desc>
</wpt>
<wpt lat="48.888368942" lon="2.390991659">
  <name>19017 - PARC DE LA VILLETTE</name>
  <cmt>19017 - PARC DE LA VILLETTE</cmt>
  <desc>19017 - PARC DE LA VILLETTE</desc>
</wpt>
<wpt lat="48.897488460" lon="2.343996499">
  <name>18032 - PORTE DE CLIGNANCOURT</name>
  <cmt>18032 - PORTE DE CLIGNANCOURT</cmt>
  <desc>18032 - PORTE DE CLIGNANCOURT</desc>
</wpt>
<wpt lat="48.870481939" lon="2.307662540">
  <name>08039 - COLISEE</name>
  <cmt>08039 - COLISEE</cmt>
  <desc>08039 - COLISEE</desc>
</wpt>
<wpt lat="48.841504802" lon="2.323277716">
  <name>14101 - PLACE FERNAND MOURLOT</name>
  <cmt>14101 - PLACE FERNAND MOURLOT</cmt>
  <desc>14101 - PLACE FERNAND MOURLOT</desc>
</wpt>
<wpt lat="48.852944888" lon="2.352088649">
  <name>04003 - PONT SAINT LOUIS</name>
  <cmt>04003 - PONT SAINT LOUIS</cmt>
  <desc>04003 - PONT SAINT LOUIS</desc>
</wpt>
<wpt lat="48.890133987" lon="2.360504245">
  <name>18010 - MARX DORMOY</name>
  <cmt>18010 - MARX DORMOY</cmt>
  <desc>18010 - MARX DORMOY</desc>
</wpt>
<wpt lat="48.844292866" lon="2.277345897">
  <name>15060 - MONDRIAN</name>
  <cmt>15060 - MONDRIAN</cmt>
  <desc>15060 - MONDRIAN</desc>
</wpt>
<wpt lat="48.841907153" lon="2.376605625">
  <name>12105 - BERCY VILLOT</name>
  <cmt>12105 - BERCY VILLOT</cmt>
  <desc>12105 - BERCY VILLOT</desc>
</wpt>
<wpt lat="48.845886946" lon="2.366896794">
  <name>12003 - QUAI DE LA RAPEE</name>
  <cmt>12003 - QUAI DE LA RAPEE</cmt>
  <desc>12003 - QUAI DE LA RAPEE</desc>
</wpt>
<wpt lat="48.835064364" lon="2.323731450">
  <name>14103 - MAINE LIANCOURT</name>
  <cmt>14103 - MAINE LIANCOURT</cmt>
  <desc>14103 - MAINE LIANCOURT</desc>
</wpt>
<wpt lat="48.825839461" lon="2.357215358">
  <name>13030 - ITALIE TOLBIAC</name>
  <cmt>13030 - ITALIE TOLBIAC</cmt>
  <desc>13030 - ITALIE TOLBIAC</desc>
</wpt>
<wpt lat="48.865194405" lon="2.300249545">
  <name>08046 - ALMA MARCEAU</name>
  <cmt>08046 - ALMA MARCEAU</cmt>
  <desc>08046 - ALMA MARCEAU</desc>
</wpt>
<wpt lat="48.858381253" lon="2.284129013">
  <name>16023 - RUE DE PASSY</name>
  <cmt>16023 - RUE DE PASSY</cmt>
  <desc>16023 - RUE DE PASSY</desc>
</wpt>
<wpt lat="48.884348151" lon="2.364163330">
  <name>10035 - AUBERVILLIERS</name>
  <cmt>10035 - AUBERVILLIERS</cmt>
  <desc>10035 - AUBERVILLIERS</desc>
</wpt>
<wpt lat="48.908110383" lon="2.307519710">
  <name>21111 - LERICHE (CLICHY)</name>
  <cmt>21111 - LERICHE (CLICHY)</cmt>
  <desc>21111 - LERICHE (CLICHY)</desc>
</wpt>